{"type":"FeatureCollection","name":"cities-over-50k","crs":{"type":"name","properties":{"name":"urn:ogc:def:crs:EPSG::4269"}},"features":[{"type":"Feature","properties":{"GNIS_ID":158174,"ANSICODE":"2403868","FEATURE":"Civil","FEATURE2":"County Seat","NAME":"Birmingham","POP_2010":212237,"COUNTY":"Jefferson","COUNTYFIPS":"073","STATE":"AL","STATE_FIPS":"01","LATITUDE":33.5206608,"LONGITUDE":-86.80249,"PopPlLat":33.5206608,"PopPlLong":-86.80249,"ELEV_IN_M":187,"ELEV_IN_FT":614},"geometry":{"type":"Point","coordinates":[-86.80249,33.52066080000009]}},{"type":"Feature","properties":{"GNIS_ID":151827,"ANSICODE":"2404746","FEATURE":"Civil","FEATURE2":"County Seat","NAME":"Huntsville","POP_2010":180105,"COUNTY":"Madison","COUNTYFIPS":"089","STATE":"AL","STATE_FIPS":"01","LATITUDE":34.7303688,"LONGITUDE":-86.5861037,"PopPlLat":34.7303688,"PopPlLong":-86.5861037,"ELEV_IN_M":193,"ELEV_IN_FT":633},"geometry":{"type":"Point","coordinates":[-86.58610369999997,34.730368800000065]}},{"type":"Feature","properties":{"GNIS_ID":165344,"ANSICODE":"2404289","FEATURE":"Civil","FEATURE2":"State Capital County Seat","NAME":"Montgomery","POP_2010":205764,"COUNTY":"Montgomery","COUNTYFIPS":"101","STATE":"AL","STATE_FIPS":"01","LATITUDE":32.3668052,"LONGITUDE":-86.2999689,"PopPlLat":32.3668052,"PopPlLong":-86.2999689,"ELEV_IN_M":73,"ELEV_IN_FT":239},"geometry":{"type":"Point","coordinates":[-86.2999688999999,32.3668052000001]}},{"type":"Feature","properties":{"GNIS_ID":155153,"ANSICODE":"2404278","FEATURE":"Civil","FEATURE2":"County Seat","NAME":"Mobile","POP_2010":195111,"COUNTY":"Mobile","COUNTYFIPS":"097","STATE":"AL","STATE_FIPS":"01","LATITUDE":30.6943566,"LONGITUDE":-88.0430541,"PopPlLat":30.6943566,"PopPlLong":-88.0430541,"ELEV_IN_M":3,"ELEV_IN_FT":10},"geometry":{"type":"Point","coordinates":[-88.04305409999995,30.694356600000162]}},{"type":"Feature","properties":{"GNIS_ID":1404263,"ANSICODE":"2419344","FEATURE":"Civil","FEATURE2":"State Capital County Seat","NAME":"Juneau","POP_2010":31275,"COUNTY":"Juneau City and","COUNTYFIPS":"110","STATE":"AK","STATE_FIPS":"02","LATITUDE":58.3019444,"LONGITUDE":-134.4197222,"PopPlLat":58.3019444,"PopPlLong":-134.4197222,"ELEV_IN_M":17,"ELEV_IN_FT":56},"geometry":{"type":"Point","coordinates":[-134.41972219999997,58.301944400000195]}},{"type":"Feature","properties":{"GNIS_ID":1398242,"ANSICODE":"2419025","FEATURE":"Civil","FEATURE2":"County Seat","NAME":"Anchorage","POP_2010":291826,"COUNTY":"Anchorage","COUNTYFIPS":"020","STATE":"AK","STATE_FIPS":"02","LATITUDE":61.2180556,"LONGITUDE":-149.9002778,"PopPlLat":61.2180556,"PopPlLong":-149.9002778,"ELEV_IN_M":31,"ELEV_IN_FT":102},"geometry":{"type":"Point","coordinates":[-149.9002777999999,61.21805560000007]}},{"type":"Feature","properties":{"GNIS_ID":2748,"ANSICODE":"2409433","FEATURE":"Civil","FEATURE2":"-999","NAME":"Chandler","POP_2010":236123,"COUNTY":"Maricopa","COUNTYFIPS":"013","STATE":"AZ","STATE_FIPS":"04","LATITUDE":33.3061605,"LONGITUDE":-111.8412502,"PopPlLat":33.3061605,"PopPlLong":-111.8412502,"ELEV_IN_M":370,"ELEV_IN_FT":1214},"geometry":{"type":"Point","coordinates":[-111.84125019999993,33.306160499999976]}},{"type":"Feature","properties":{"GNIS_ID":5060,"ANSICODE":"2410596","FEATURE":"Civil","FEATURE2":"-999","NAME":"Glendale","POP_2010":226721,"COUNTY":"Maricopa","COUNTYFIPS":"013","STATE":"AZ","STATE_FIPS":"04","LATITUDE":33.5386523,"LONGITUDE":-112.1859866,"PopPlLat":33.5386523,"PopPlLong":-112.1859866,"ELEV_IN_M":351,"ELEV_IN_FT":1152},"geometry":{"type":"Point","coordinates":[-112.18598659999998,33.53865230000008]}},{"type":"Feature","properties":{"GNIS_ID":7890,"ANSICODE":"2411087","FEATURE":"Civil","FEATURE2":"-999","NAME":"Mesa","POP_2010":439041,"COUNTY":"Maricopa","COUNTYFIPS":"013","STATE":"AZ","STATE_FIPS":"04","LATITUDE":33.4222685,"LONGITUDE":-111.8226402,"PopPlLat":33.4222685,"PopPlLong":-111.8226402,"ELEV_IN_M":378,"ELEV_IN_FT":1240},"geometry":{"type":"Point","coordinates":[-111.8226402,33.42226850000009]}},{"type":"Feature","properties":{"GNIS_ID":9318,"ANSICODE":"2411401","FEATURE":"Civil","FEATURE2":"-999","NAME":"Peoria","POP_2010":154065,"COUNTY":"Maricopa","COUNTYFIPS":"013","STATE":"AZ","STATE_FIPS":"04","LATITUDE":33.5805955,"LONGITUDE":-112.2373779,"PopPlLat":33.5805955,"PopPlLong":-112.2373779,"ELEV_IN_M":348,"ELEV_IN_FT":1142},"geometry":{"type":"Point","coordinates":[-112.23737789999996,33.580595500000015]}},{"type":"Feature","properties":{"GNIS_ID":44784,"ANSICODE":"2411414","FEATURE":"Civil","FEATURE2":"State Capital County Seat","NAME":"Phoenix","POP_2010":1445632,"COUNTY":"Maricopa","COUNTYFIPS":"013","STATE":"AZ","STATE_FIPS":"04","LATITUDE":33.4483771,"LONGITUDE":-112.0740373,"PopPlLat":33.4483771,"PopPlLong":-112.0740373,"ELEV_IN_M":331,"ELEV_IN_FT":1086},"geometry":{"type":"Point","coordinates":[-112.07403729999999,33.44837710000013]}},{"type":"Feature","properties":{"GNIS_ID":11029,"ANSICODE":"2411845","FEATURE":"Civil","FEATURE2":"-999","NAME":"Scottsdale","POP_2010":217385,"COUNTY":"Maricopa","COUNTYFIPS":"013","STATE":"AZ","STATE_FIPS":"04","LATITUDE":33.5092103,"LONGITUDE":-111.8990327,"PopPlLat":33.5092103,"PopPlLong":-111.8990327,"ELEV_IN_M":383,"ELEV_IN_FT":1257},"geometry":{"type":"Point","coordinates":[-111.8990326999999,33.50921030000018]}},{"type":"Feature","properties":{"GNIS_ID":12233,"ANSICODE":"2412045","FEATURE":"Civil","FEATURE2":"-999","NAME":"Tempe","POP_2010":161719,"COUNTY":"Maricopa","COUNTYFIPS":"013","STATE":"AZ","STATE_FIPS":"04","LATITUDE":33.414768,"LONGITUDE":-111.9093095,"PopPlLat":33.414768,"PopPlLong":-111.9093095,"ELEV_IN_M":360,"ELEV_IN_FT":1181},"geometry":{"type":"Point","coordinates":[-111.90930949999989,33.41476800000015]}},{"type":"Feature","properties":{"GNIS_ID":5032,"ANSICODE":"2412682","FEATURE":"Civil","FEATURE2":"-999","NAME":"Gilbert","POP_2010":208453,"COUNTY":"Maricopa","COUNTYFIPS":"013","STATE":"AZ","STATE_FIPS":"04","LATITUDE":33.3528264,"LONGITUDE":-111.789027,"PopPlLat":33.3528264,"PopPlLong":-111.789027,"ELEV_IN_M":377,"ELEV_IN_FT":1237},"geometry":{"type":"Point","coordinates":[-111.789027,33.35282640000008]}},{"type":"Feature","properties":{"GNIS_ID":43534,"ANSICODE":"2412104","FEATURE":"Civil","FEATURE2":"County Seat","NAME":"Tucson","POP_2010":520116,"COUNTY":"Pima","COUNTYFIPS":"019","STATE":"AZ","STATE_FIPS":"04","LATITUDE":32.2217429,"LONGITUDE":-110.926479,"PopPlLat":32.2217429,"PopPlLong":-110.926479,"ELEV_IN_M":759,"ELEV_IN_FT":2490},"geometry":{"type":"Point","coordinates":[-110.926479,32.221742900000095]}},{"type":"Feature","properties":{"GNIS_ID":83350,"ANSICODE":"2404939","FEATURE":"Civil","FEATURE2":"State Capital County Seat","NAME":"Little Rock","POP_2010":193524,"COUNTY":"Pulaski","COUNTYFIPS":"119","STATE":"AR","STATE_FIPS":"05","LATITUDE":34.7464809,"LONGITUDE":-92.2895948,"PopPlLat":34.7464809,"PopPlLong":-92.2895948,"ELEV_IN_M":102,"ELEV_IN_FT":335},"geometry":{"type":"Point","coordinates":[-92.28959479999992,34.74648090000005]}},{"type":"Feature","properties":{"GNIS_ID":1652668,"ANSICODE":"2409774","FEATURE":"Civil","FEATURE2":"County Seat","NAME":"Bakersfield","POP_2010":347483,"COUNTY":"Kern","COUNTYFIPS":"029","STATE":"CA","STATE_FIPS":"06","LATITUDE":35.3732921,"LONGITUDE":-119.0187125,"PopPlLat":35.3732921,"PopPlLong":-119.0187125,"ELEV_IN_M":123,"ELEV_IN_FT":404},"geometry":{"type":"Point","coordinates":[-119.0187125,35.37329210000013]}},{"type":"Feature","properties":{"GNIS_ID":1652691,"ANSICODE":"2410232","FEATURE":"Civil","FEATURE2":"-999","NAME":"Corona","POP_2010":152374,"COUNTY":"Riverside","COUNTYFIPS":"065","STATE":"CA","STATE_FIPS":"06","LATITUDE":33.8752935,"LONGITUDE":-117.5664384,"PopPlLat":33.8752935,"PopPlLong":-117.5664384,"ELEV_IN_M":207,"ELEV_IN_FT":679},"geometry":{"type":"Point","coordinates":[-117.56643839999998,33.87529350000011]}},{"type":"Feature","properties":{"GNIS_ID":1652663,"ANSICODE":"2409704","FEATURE":"Civil","FEATURE2":"-999","NAME":"Anaheim","POP_2010":336265,"COUNTY":"Orange","COUNTYFIPS":"059","STATE":"CA","STATE_FIPS":"06","LATITUDE":33.8352932,"LONGITUDE":-117.9145036,"PopPlLat":33.8352932,"PopPlLong":-117.9145036,"ELEV_IN_M":48,"ELEV_IN_FT":157},"geometry":{"type":"Point","coordinates":[-117.91450359999999,33.835293200000024]}},{"type":"Feature","properties":{"GNIS_ID":1660804,"ANSICODE":"2410116","FEATURE":"Civil","FEATURE2":"-999","NAME":"Irvine","POP_2010":212375,"COUNTY":"Orange","COUNTYFIPS":"059","STATE":"CA","STATE_FIPS":"06","LATITUDE":33.6694649,"LONGITUDE":-117.8231107,"PopPlLat":33.6694649,"PopPlLong":-117.8231107,"ELEV_IN_M":17,"ELEV_IN_FT":56},"geometry":{"type":"Point","coordinates":[-117.82311069999997,33.669464900000094]}},{"type":"Feature","properties":{"GNIS_ID":1660481,"ANSICODE":"2409461","FEATURE":"Civil","FEATURE2":"-999","NAME":"Chula Vista","POP_2010":243916,"COUNTY":"San Diego","COUNTYFIPS":"073","STATE":"CA","STATE_FIPS":"06","LATITUDE":32.6400541,"LONGITUDE":-117.0841955,"PopPlLat":32.6400541,"PopPlLong":-117.0841955,"ELEV_IN_M":20,"ELEV_IN_FT":66},"geometry":{"type":"Point","coordinates":[-117.08419549999996,32.64005410000004]}},{"type":"Feature","properties":{"GNIS_ID":277506,"ANSICODE":"2410425","FEATURE":"Civil","FEATURE2":"-999","NAME":"Elk Grove","POP_2010":153015,"COUNTY":"Sacramento","COUNTYFIPS":"067","STATE":"CA","STATE_FIPS":"06","LATITUDE":38.4087993,"LONGITUDE":-121.3716178,"PopPlLat":38.4087993,"PopPlLong":-121.3716178,"ELEV_IN_M":14,"ELEV_IN_FT":46},"geometry":{"type":"Point","coordinates":[-121.37161779999997,38.408799300000055]}},{"type":"Feature","properties":{"GNIS_ID":277609,"ANSICODE":"2411130","FEATURE":"Civil","FEATURE2":"County Seat","NAME":"Modesto","POP_2010":201165,"COUNTY":"Stanislaus","COUNTYFIPS":"099","STATE":"CA","STATE_FIPS":"06","LATITUDE":37.6390972,"LONGITUDE":-120.9968782,"PopPlLat":37.6390972,"PopPlLong":-120.9968782,"ELEV_IN_M":27,"ELEV_IN_FT":89},"geometry":{"type":"Point","coordinates":[-120.99687819999991,37.63909719999998]}},{"type":"Feature","properties":{"GNIS_ID":277521,"ANSICODE":"2410545","FEATURE":"Civil","FEATURE2":"-999","NAME":"Fremont","POP_2010":214089,"COUNTY":"Alameda","COUNTYFIPS":"001","STATE":"CA","STATE_FIPS":"06","LATITUDE":37.5482697,"LONGITUDE":-121.9885719,"PopPlLat":37.5482697,"PopPlLong":-121.9885719,"ELEV_IN_M":17,"ELEV_IN_FT":56},"geometry":{"type":"Point","coordinates":[-121.9885718999999,37.54826970000016]}},{"type":"Feature","properties":{"GNIS_ID":277566,"ANSICODE":"2411292","FEATURE":"Civil","FEATURE2":"County Seat","NAME":"Oakland","POP_2010":390724,"COUNTY":"Alameda","COUNTYFIPS":"001","STATE":"CA","STATE_FIPS":"06","LATITUDE":37.8043722,"LONGITUDE":-122.2708026,"PopPlLat":37.8043722,"PopPlLong":-122.2708026,"ELEV_IN_M":13,"ELEV_IN_FT":43},"geometry":{"type":"Point","coordinates":[-122.27080259999997,37.80437220000016]}},{"type":"Feature","properties":{"GNIS_ID":277606,"ANSICODE":"2410546","FEATURE":"Civil","FEATURE2":"County Seat","NAME":"Fresno","POP_2010":494665,"COUNTY":"Fresno","COUNTYFIPS":"019","STATE":"CA","STATE_FIPS":"06","LATITUDE":36.7477272,"LONGITUDE":-119.7723661,"PopPlLat":36.7477272,"PopPlLong":-119.7723661,"ELEV_IN_M":94,"ELEV_IN_FT":308},"geometry":{"type":"Point","coordinates":[-119.77236609999989,36.7477272000001]}},{"type":"Feature","properties":{"GNIS_ID":1652711,"ANSICODE":"2410517","FEATURE":"Civil","FEATURE2":"-999","NAME":"Fontana","POP_2010":196069,"COUNTY":"San Bernardino","COUNTYFIPS":"071","STATE":"CA","STATE_FIPS":"06","LATITUDE":34.0922335,"LONGITUDE":-117.435048,"PopPlLat":34.0922335,"PopPlLong":-117.435048,"ELEV_IN_M":377,"ELEV_IN_FT":1237},"geometry":{"type":"Point","coordinates":[-117.43504799999988,34.09223350000008]}},{"type":"Feature","properties":{"GNIS_ID":1652764,"ANSICODE":"2411323","FEATURE":"Civil","FEATURE2":"-999","NAME":"Ontario","POP_2010":163924,"COUNTY":"San Bernardino","COUNTYFIPS":"071","STATE":"CA","STATE_FIPS":"06","LATITUDE":34.0633443,"LONGITUDE":-117.6508876,"PopPlLat":34.0633443,"PopPlLong":-117.6508876,"ELEV_IN_M":306,"ELEV_IN_FT":1004},"geometry":{"type":"Point","coordinates":[-117.65088759999992,34.06334430000004]}},{"type":"Feature","properties":{"GNIS_ID":1667908,"ANSICODE":"2411514","FEATURE":"Civil","FEATURE2":"-999","NAME":"Rancho Cucamonga","POP_2010":165269,"COUNTY":"San Bernardino","COUNTYFIPS":"071","STATE":"CA","STATE_FIPS":"06","LATITUDE":34.1063989,"LONGITUDE":-117.5931084,"PopPlLat":34.1063989,"PopPlLong":-117.5931084,"ELEV_IN_M":368,"ELEV_IN_FT":1207},"geometry":{"type":"Point","coordinates":[-117.59310839999995,34.1063989000001]}},{"type":"Feature","properties":{"GNIS_ID":1652766,"ANSICODE":"2411347","FEATURE":"Civil","FEATURE2":"-999","NAME":"Oxnard","POP_2010":197899,"COUNTY":"Ventura","COUNTYFIPS":"111","STATE":"CA","STATE_FIPS":"06","LATITUDE":34.1975048,"LONGITUDE":-119.1770516,"PopPlLat":34.1975048,"PopPlLong":-119.1770516,"ELEV_IN_M":16,"ELEV_IN_FT":52},"geometry":{"type":"Point","coordinates":[-119.1770516,34.197504800000104]}},{"type":"Feature","properties":{"GNIS_ID":1660679,"ANSICODE":"2410597","FEATURE":"Civil","FEATURE2":"-999","NAME":"Glendale","POP_2010":191719,"COUNTY":"Los Angeles","COUNTYFIPS":"037","STATE":"CA","STATE_FIPS":"06","LATITUDE":34.1425078,"LONGITUDE":-118.255075,"PopPlLat":34.1425078,"PopPlLong":-118.255075,"ELEV_IN_M":159,"ELEV_IN_FT":522},"geometry":{"type":"Point","coordinates":[-118.255075,34.14250780000009]}},{"type":"Feature","properties":{"GNIS_ID":1652747,"ANSICODE":"2410866","FEATURE":"Civil","FEATURE2":"-999","NAME":"Long Beach","POP_2010":462257,"COUNTY":"Los Angeles","COUNTYFIPS":"037","STATE":"CA","STATE_FIPS":"06","LATITUDE":33.7669623,"LONGITUDE":-118.1892348,"PopPlLat":33.7669623,"PopPlLong":-118.1892348,"ELEV_IN_M":9,"ELEV_IN_FT":30},"geometry":{"type":"Point","coordinates":[-118.18923479999995,33.766962300000046]}},{"type":"Feature","properties":{"GNIS_ID":1662328,"ANSICODE":"2410877","FEATURE":"Civil","FEATURE2":"County Seat","NAME":"Los Angeles","POP_2010":3792621,"COUNTY":"Los Angeles","COUNTYFIPS":"037","STATE":"CA","STATE_FIPS":"06","LATITUDE":34.0522342,"LONGITUDE":-118.2436849,"PopPlLat":34.0522342,"PopPlLong":-118.2436849,"ELEV_IN_M":89,"ELEV_IN_FT":292},"geometry":{"type":"Point","coordinates":[-118.24368489999995,34.05223420000004]}},{"type":"Feature","properties":{"GNIS_ID":1652769,"ANSICODE":"2411359","FEATURE":"Civil","FEATURE2":"-999","NAME":"Palmdale","POP_2010":152750,"COUNTY":"Los Angeles","COUNTYFIPS":"037","STATE":"CA","STATE_FIPS":"06","LATITUDE":34.5794343,"LONGITUDE":-118.1164613,"PopPlLat":34.5794343,"PopPlLong":-118.1164613,"ELEV_IN_M":810,"ELEV_IN_FT":2657},"geometry":{"type":"Point","coordinates":[-118.11646129999997,34.57943430000006]}},{"type":"Feature","properties":{"GNIS_ID":1652741,"ANSICODE":"2411620","FEATURE":"Civil","FEATURE2":"-999","NAME":"Lancaster","POP_2010":156633,"COUNTY":"Los Angeles","COUNTYFIPS":"037","STATE":"CA","STATE_FIPS":"06","LATITUDE":34.6980406,"LONGITUDE":-118.1367393,"PopPlLat":34.6980406,"PopPlLong":-118.1367393,"ELEV_IN_M":719,"ELEV_IN_FT":2359},"geometry":{"type":"Point","coordinates":[-118.13673929999999,34.69804060000007]}},{"type":"Feature","properties":{"GNIS_ID":1661315,"ANSICODE":"2410965","FEATURE":"Civil","FEATURE2":"County Seat","NAME":"Riverside","POP_2010":303871,"COUNTY":"Riverside","COUNTYFIPS":"065","STATE":"CA","STATE_FIPS":"06","LATITUDE":33.9533487,"LONGITUDE":-117.3961564,"PopPlLat":33.9533487,"PopPlLong":-117.3961564,"ELEV_IN_M":252,"ELEV_IN_FT":827},"geometry":{"type":"Point","coordinates":[-117.39615639999994,33.953348700000106]}},{"type":"Feature","properties":{"GNIS_ID":1668251,"ANSICODE":"2411159","FEATURE":"Civil","FEATURE2":"-999","NAME":"Moreno Valley","POP_2010":193365,"COUNTY":"Riverside","COUNTYFIPS":"065","STATE":"CA","STATE_FIPS":"06","LATITUDE":33.937517,"LONGITUDE":-117.2305944,"PopPlLat":33.937517,"PopPlLong":-117.2305944,"ELEV_IN_M":497,"ELEV_IN_FT":1631},"geometry":{"type":"Point","coordinates":[-117.23059439999992,33.937517]}},{"type":"Feature","properties":{"GNIS_ID":1660662,"ANSICODE":"2410568","FEATURE":"Civil","FEATURE2":"-999","NAME":"Garden Grove","POP_2010":170883,"COUNTY":"Orange","COUNTYFIPS":"059","STATE":"CA","STATE_FIPS":"06","LATITUDE":33.7739053,"LONGITUDE":-117.9414477,"PopPlLat":33.7739053,"PopPlLong":-117.9414477,"ELEV_IN_M":27,"ELEV_IN_FT":89},"geometry":{"type":"Point","coordinates":[-117.94144769999997,33.77390530000008]}},{"type":"Feature","properties":{"GNIS_ID":1652724,"ANSICODE":"2410811","FEATURE":"Civil","FEATURE2":"-999","NAME":"Huntington Beach","POP_2010":189992,"COUNTY":"Orange","COUNTYFIPS":"059","STATE":"CA","STATE_FIPS":"06","LATITUDE":33.660297,"LONGITUDE":-117.9992265,"PopPlLat":33.660297,"PopPlLong":-117.9992265,"ELEV_IN_M":12,"ELEV_IN_FT":39},"geometry":{"type":"Point","coordinates":[-117.99922649999996,33.660297000000185]}},{"type":"Feature","properties":{"GNIS_ID":1652761,"ANSICODE":"2411301","FEATURE":"Civil","FEATURE2":"-999","NAME":"Oceanside","POP_2010":167086,"COUNTY":"San Diego","COUNTYFIPS":"073","STATE":"CA","STATE_FIPS":"06","LATITUDE":33.1958696,"LONGITUDE":-117.3794834,"PopPlLat":33.1958696,"PopPlLong":-117.3794834,"ELEV_IN_M":20,"ELEV_IN_FT":66},"geometry":{"type":"Point","coordinates":[-117.37948339999991,33.19586960000015]}},{"type":"Feature","properties":{"GNIS_ID":1659601,"ANSICODE":"2411827","FEATURE":"Civil","FEATURE2":"County Seat","NAME":"Santa Rosa","POP_2010":167815,"COUNTY":"Sonoma","COUNTYFIPS":"097","STATE":"CA","STATE_FIPS":"06","LATITUDE":38.4404675,"LONGITUDE":-122.7144314,"PopPlLat":38.4404675,"PopPlLong":-122.7144314,"ELEV_IN_M":50,"ELEV_IN_FT":164},"geometry":{"type":"Point","coordinates":[-122.71443139999997,38.440467500000125]}},{"type":"Feature","properties":{"GNIS_ID":1659564,"ANSICODE":"2411751","FEATURE":"Civil","FEATURE2":"State Capital County Seat","NAME":"Sacramento","POP_2010":466488,"COUNTY":"Sacramento","COUNTYFIPS":"067","STATE":"CA","STATE_FIPS":"06","LATITUDE":38.5815719,"LONGITUDE":-121.4943996,"PopPlLat":38.5815719,"PopPlLong":-121.4943996,"ELEV_IN_M":9,"ELEV_IN_FT":30},"geometry":{"type":"Point","coordinates":[-121.49439959999995,38.581571900000085]}},{"type":"Feature","properties":{"GNIS_ID":1659872,"ANSICODE":"2411987","FEATURE":"Civil","FEATURE2":"County Seat","NAME":"Stockton","POP_2010":291707,"COUNTY":"San Joaquin","COUNTYFIPS":"077","STATE":"CA","STATE_FIPS":"06","LATITUDE":37.9577016,"LONGITUDE":-121.2907796,"PopPlLat":37.9577016,"PopPlLong":-121.2907796,"ELEV_IN_M":4,"ELEV_IN_FT":13},"geometry":{"type":"Point","coordinates":[-121.29077959999995,37.95770160000012]}},{"type":"Feature","properties":{"GNIS_ID":277593,"ANSICODE":"2411786","FEATURE":"Civil","FEATURE2":"County Seat","NAME":"San Francisco","POP_2010":805235,"COUNTY":"San Francisco","COUNTYFIPS":"075","STATE":"CA","STATE_FIPS":"06","LATITUDE":37.7749295,"LONGITUDE":-122.4194155,"PopPlLat":37.7749295,"PopPlLong":-122.4194155,"ELEV_IN_M":16,"ELEV_IN_FT":52},"geometry":{"type":"Point","coordinates":[-122.41941549999996,37.774929500000155]}},{"type":"Feature","properties":{"GNIS_ID":1654952,"ANSICODE":"2411790","FEATURE":"Civil","FEATURE2":"County Seat","NAME":"San Jose","POP_2010":945942,"COUNTY":"Santa Clara","COUNTYFIPS":"085","STATE":"CA","STATE_FIPS":"06","LATITUDE":37.3393857,"LONGITUDE":-121.8949555,"PopPlLat":37.3393857,"PopPlLong":-121.8949555,"ELEV_IN_M":25,"ELEV_IN_FT":82},"geometry":{"type":"Point","coordinates":[-121.8949555,37.33938570000004]}},{"type":"Feature","properties":{"GNIS_ID":277589,"ANSICODE":"2411768","FEATURE":"Civil","FEATURE2":"County Seat","NAME":"Salinas","POP_2010":150441,"COUNTY":"Monterey","COUNTYFIPS":"053","STATE":"CA","STATE_FIPS":"06","LATITUDE":36.6777372,"LONGITUDE":-121.6555013,"PopPlLat":36.6777372,"PopPlLong":-121.6555013,"ELEV_IN_M":16,"ELEV_IN_FT":52},"geometry":{"type":"Point","coordinates":[-121.65550129999991,36.677737200000024]}},{"type":"Feature","properties":{"GNIS_ID":1661375,"ANSICODE":"2411777","FEATURE":"Civil","FEATURE2":"County Seat","NAME":"San Bernardino","POP_2010":209924,"COUNTY":"San Bernardino","COUNTYFIPS":"071","STATE":"CA","STATE_FIPS":"06","LATITUDE":34.1083449,"LONGITUDE":-117.2897652,"PopPlLat":34.1083449,"PopPlLong":-117.2897652,"ELEV_IN_M":321,"ELEV_IN_FT":1053},"geometry":{"type":"Point","coordinates":[-117.2897652,34.10834490000019]}},{"type":"Feature","properties":{"GNIS_ID":1662338,"ANSICODE":"2411819","FEATURE":"Civil","FEATURE2":"-999","NAME":"Santa Clarita","POP_2010":176320,"COUNTY":"Los Angeles","COUNTYFIPS":"037","STATE":"CA","STATE_FIPS":"06","LATITUDE":34.3916641,"LONGITUDE":-118.542586,"PopPlLat":34.3916641,"PopPlLong":-118.542586,"ELEV_IN_M":368,"ELEV_IN_FT":1207},"geometry":{"type":"Point","coordinates":[-118.542586,34.39166410000007]}},{"type":"Feature","properties":{"GNIS_ID":1652790,"ANSICODE":"2411814","FEATURE":"Civil","FEATURE2":"County Seat","NAME":"Santa Ana","POP_2010":324528,"COUNTY":"Orange","COUNTYFIPS":"059","STATE":"CA","STATE_FIPS":"06","LATITUDE":33.7455731,"LONGITUDE":-117.8678338,"PopPlLat":33.7455731,"PopPlLong":-117.8678338,"ELEV_IN_M":35,"ELEV_IN_FT":115},"geometry":{"type":"Point","coordinates":[-117.86783379999997,33.745573100000115]}},{"type":"Feature","properties":{"GNIS_ID":1661377,"ANSICODE":"2411782","FEATURE":"Civil","FEATURE2":"County Seat","NAME":"San Diego","POP_2010":1307402,"COUNTY":"San Diego","COUNTYFIPS":"073","STATE":"CA","STATE_FIPS":"06","LATITUDE":32.7153292,"LONGITUDE":-117.1572551,"PopPlLat":32.7153292,"PopPlLong":-117.1572551,"ELEV_IN_M":19,"ELEV_IN_FT":62},"geometry":{"type":"Point","coordinates":[-117.15725509999993,32.7153292000001]}},{"type":"Feature","properties":{"GNIS_ID":201738,"ANSICODE":"2410324","FEATURE":"Civil","FEATURE2":"State Capital County Seat","NAME":"Denver","POP_2010":600158,"COUNTY":"Denver","COUNTYFIPS":"031","STATE":"CO","STATE_FIPS":"08","LATITUDE":39.7391536,"LONGITUDE":-104.9847034,"PopPlLat":39.7391536,"PopPlLong":-104.9847034,"ELEV_IN_M":1609,"ELEV_IN_FT":5279},"geometry":{"type":"Point","coordinates":[-104.98470339999994,39.73915360000012]}},{"type":"Feature","properties":{"GNIS_ID":204737,"ANSICODE":"2409757","FEATURE":"Civil","FEATURE2":"-999","NAME":"Aurora","POP_2010":325078,"COUNTY":"Arapahoe","COUNTYFIPS":"005","STATE":"CO","STATE_FIPS":"08","LATITUDE":39.7294319,"LONGITUDE":-104.8319195,"PopPlLat":39.7294319,"PopPlLong":-104.8319195,"ELEV_IN_M":1647,"ELEV_IN_FT":5403},"geometry":{"type":"Point","coordinates":[-104.83191949999991,39.729431900000066]}},{"type":"Feature","properties":{"GNIS_ID":204797,"ANSICODE":"2410198","FEATURE":"Civil","FEATURE2":"County Seat","NAME":"Colorado Springs","POP_2010":416427,"COUNTY":"El Paso","COUNTYFIPS":"041","STATE":"CO","STATE_FIPS":"08","LATITUDE":38.8338816,"LONGITUDE":-104.8213634,"PopPlLat":38.8338816,"PopPlLong":-104.8213634,"ELEV_IN_M":1832,"ELEV_IN_FT":6010},"geometry":{"type":"Point","coordinates":[-104.82136339999994,38.833881600000154]}},{"type":"Feature","properties":{"GNIS_ID":213160,"ANSICODE":"2378277","FEATURE":"Civil","FEATURE2":"State Capital","NAME":"Hartford","POP_2010":124775,"COUNTY":"Hartford","COUNTYFIPS":"003","STATE":"CT","STATE_FIPS":"09","LATITUDE":41.7637111,"LONGITUDE":-72.6850932,"PopPlLat":41.7637111,"PopPlLong":-72.6850932,"ELEV_IN_M":9,"ELEV_IN_FT":30},"geometry":{"type":"Point","coordinates":[-72.68509319999998,41.763711100000194]}},{"type":"Feature","properties":{"GNIS_ID":205720,"ANSICODE":"2378269","FEATURE":"Civil","FEATURE2":"-999","NAME":"Bridgeport","POP_2010":144229,"COUNTY":"Fairfield","COUNTYFIPS":"001","STATE":"CT","STATE_FIPS":"09","LATITUDE":41.1670412,"LONGITUDE":-73.2048348,"PopPlLat":41.1670412,"PopPlLong":-73.2048348,"ELEV_IN_M":3,"ELEV_IN_FT":10},"geometry":{"type":"Point","coordinates":[-73.20483479999996,41.16704120000003]}},{"type":"Feature","properties":{"GNIS_ID":211129,"ANSICODE":"2378291","FEATURE":"Civil","FEATURE2":"-999","NAME":"Stamford","POP_2010":122643,"COUNTY":"Fairfield","COUNTYFIPS":"001","STATE":"CT","STATE_FIPS":"09","LATITUDE":41.0534302,"LONGITUDE":-73.5387341,"PopPlLat":41.0534302,"PopPlLong":-73.5387341,"ELEV_IN_M":4,"ELEV_IN_FT":13},"geometry":{"type":"Point","coordinates":[-73.53873409999994,41.05343020000009]}},{"type":"Feature","properties":{"GNIS_ID":209231,"ANSICODE":"2378285","FEATURE":"Civil","FEATURE2":"County Seat","NAME":"New Haven","POP_2010":129779,"COUNTY":"New Haven","COUNTYFIPS":"009","STATE":"CT","STATE_FIPS":"09","LATITUDE":41.3081527,"LONGITUDE":-72.9281578,"PopPlLat":41.3081527,"PopPlLong":-72.9281578,"ELEV_IN_M":12,"ELEV_IN_FT":39},"geometry":{"type":"Point","coordinates":[-72.92815779999995,41.308152700000164]}},{"type":"Feature","properties":{"GNIS_ID":211851,"ANSICODE":"2378294","FEATURE":"Civil","FEATURE2":"-999","NAME":"Waterbury","POP_2010":110366,"COUNTY":"New Haven","COUNTYFIPS":"009","STATE":"CT","STATE_FIPS":"09","LATITUDE":41.5581525,"LONGITUDE":-73.0514966,"PopPlLat":41.5581525,"PopPlLong":-73.0514966,"ELEV_IN_M":83,"ELEV_IN_FT":272},"geometry":{"type":"Point","coordinates":[-73.0514965999999,41.55815250000012]}},{"type":"Feature","properties":{"GNIS_ID":214862,"ANSICODE":"2390676","FEATURE":"Civil","FEATURE2":"County Seat","NAME":"Wilmington","POP_2010":70851,"COUNTY":"New Castle","COUNTYFIPS":"003","STATE":"DE","STATE_FIPS":"10","LATITUDE":39.7459467,"LONGITUDE":-75.5465889,"PopPlLat":39.7459467,"PopPlLong":-75.5465889,"ELEV_IN_M":28,"ELEV_IN_FT":92},"geometry":{"type":"Point","coordinates":[-75.54658889999996,39.74594670000016]}},{"type":"Feature","properties":{"GNIS_ID":217882,"ANSICODE":"2390583","FEATURE":"Civil","FEATURE2":"State Capital County Seat","NAME":"Dover","POP_2010":36047,"COUNTY":"Kent","COUNTYFIPS":"001","STATE":"DE","STATE_FIPS":"10","LATITUDE":39.158168,"LONGITUDE":-75.5243682,"PopPlLat":39.158168,"PopPlLong":-75.5243682,"ELEV_IN_M":9,"ELEV_IN_FT":30},"geometry":{"type":"Point","coordinates":[-75.52436819999991,39.158168]}},{"type":"Feature","properties":{"GNIS_ID":531871,"ANSICODE":"2390665","FEATURE":"Civil","FEATURE2":"National Capital","NAME":"Washington","POP_2010":601723,"COUNTY":"District of Columbia","COUNTYFIPS":"001","STATE":"DC","STATE_FIPS":"11","LATITUDE":38.8951118,"LONGITUDE":-77.0363658,"PopPlLat":38.8951118,"PopPlLong":-77.0363658,"ELEV_IN_M":7,"ELEV_IN_FT":23},"geometry":{"type":"Point","coordinates":[-77.03636579999994,38.89511180000005]}},{"type":"Feature","properties":{"GNIS_ID":282693,"ANSICODE":"2403640","FEATURE":"Civil","FEATURE2":"County Seat","NAME":"Fort Lauderdale","POP_2010":165521,"COUNTY":"Broward","COUNTYFIPS":"011","STATE":"FL","STATE_FIPS":"12","LATITUDE":26.1223084,"LONGITUDE":-80.1433786,"PopPlLat":26.1223084,"PopPlLong":-80.1433786,"ELEV_IN_M":1,"ELEV_IN_FT":3},"geometry":{"type":"Point","coordinates":[-80.14337859999989,26.12230840000018]}},{"type":"Feature","properties":{"GNIS_ID":295003,"ANSICODE":"2404783","FEATURE":"Civil","FEATURE2":"County Seat","NAME":"Jacksonville","POP_2010":821784,"COUNTY":"Duval","COUNTYFIPS":"031","STATE":"FL","STATE_FIPS":"12","LATITUDE":30.3321838,"LONGITUDE":-81.655651,"PopPlLat":30.3321838,"PopPlLong":-81.655651,"ELEV_IN_M":5,"ELEV_IN_FT":16},"geometry":{"type":"Point","coordinates":[-81.655651,30.33218380000011]}},{"type":"Feature","properties":{"GNIS_ID":288240,"ANSICODE":"2404443","FEATURE":"Civil","FEATURE2":"County Seat","NAME":"Orlando","POP_2010":238300,"COUNTY":"Orange","COUNTYFIPS":"095","STATE":"FL","STATE_FIPS":"12","LATITUDE":28.5383355,"LONGITUDE":-81.3792365,"PopPlLat":28.5383355,"PopPlLong":-81.3792365,"ELEV_IN_M":31,"ELEV_IN_FT":102},"geometry":{"type":"Point","coordinates":[-81.3792365,28.53833550000013]}},{"type":"Feature","properties":{"GNIS_ID":308089,"ANSICODE":"2404558","FEATURE":"Civil","FEATURE2":"-999","NAME":"Port Saint Lucie","POP_2010":164603,"COUNTY":"Saint Lucie","COUNTYFIPS":"111","STATE":"FL","STATE_FIPS":"12","LATITUDE":27.2939333,"LONGITUDE":-80.3503283,"PopPlLat":27.2939333,"PopPlLong":-80.3503283,"ELEV_IN_M":5,"ELEV_IN_FT":16},"geometry":{"type":"Point","coordinates":[-80.35032829999989,27.29393330000005]}},{"type":"Feature","properties":{"GNIS_ID":279997,"ANSICODE":"2403990","FEATURE":"Civil","FEATURE2":"-999","NAME":"Cape Coral","POP_2010":154305,"COUNTY":"Lee","COUNTYFIPS":"071","STATE":"FL","STATE_FIPS":"12","LATITUDE":26.5628537,"LONGITUDE":-81.9495331,"PopPlLat":26.5628537,"PopPlLong":-81.9495331,"ELEV_IN_M":1,"ELEV_IN_FT":3},"geometry":{"type":"Point","coordinates":[-81.9495331,26.5628537]}},{"type":"Feature","properties":{"GNIS_ID":288686,"ANSICODE":"2404502","FEATURE":"Civil","FEATURE2":"-999","NAME":"Pembroke Pines","POP_2010":154750,"COUNTY":"Broward","COUNTYFIPS":"011","STATE":"FL","STATE_FIPS":"12","LATITUDE":26.0031465,"LONGITUDE":-80.223937,"PopPlLat":26.0031465,"PopPlLong":-80.223937,"ELEV_IN_M":2,"ELEV_IN_FT":7},"geometry":{"type":"Point","coordinates":[-80.223937,26.003146500000128]}},{"type":"Feature","properties":{"GNIS_ID":295004,"ANSICODE":"2404247","FEATURE":"Civil","FEATURE2":"County Seat","NAME":"Miami","POP_2010":399457,"COUNTY":"Miami-Dade","COUNTYFIPS":"086","STATE":"FL","STATE_FIPS":"12","LATITUDE":25.7742658,"LONGITUDE":-80.1936589,"PopPlLat":25.7742658,"PopPlLong":-80.1936589,"ELEV_IN_M":2,"ELEV_IN_FT":7},"geometry":{"type":"Point","coordinates":[-80.19365889999989,25.774265800000023]}},{"type":"Feature","properties":{"GNIS_ID":305059,"ANSICODE":"2404689","FEATURE":"Civil","FEATURE2":"-999","NAME":"Hialeah","POP_2010":224669,"COUNTY":"Miami-Dade","COUNTYFIPS":"086","STATE":"FL","STATE_FIPS":"12","LATITUDE":25.8575963,"LONGITUDE":-80.2781057,"PopPlLat":25.8575963,"PopPlLong":-80.2781057,"ELEV_IN_M":2,"ELEV_IN_FT":7},"geometry":{"type":"Point","coordinates":[-80.27810569999991,25.85759630000007]}},{"type":"Feature","properties":{"GNIS_ID":308416,"ANSICODE":"2405563","FEATURE":"Civil","FEATURE2":"State Capital County Seat","NAME":"Tallahassee","POP_2010":181376,"COUNTY":"Leon","COUNTYFIPS":"073","STATE":"FL","STATE_FIPS":"12","LATITUDE":30.4382559,"LONGITUDE":-84.2807329,"PopPlLat":30.4382559,"PopPlLong":-84.2807329,"ELEV_IN_M":62,"ELEV_IN_FT":203},"geometry":{"type":"Point","coordinates":[-84.28073289999998,30.438255900000115]}},{"type":"Feature","properties":{"GNIS_ID":290375,"ANSICODE":"2405401","FEATURE":"Civil","FEATURE2":"-999","NAME":"Saint Petersburg","POP_2010":244769,"COUNTY":"Pinellas","COUNTYFIPS":"103","STATE":"FL","STATE_FIPS":"12","LATITUDE":27.7708606,"LONGITUDE":-82.6792661,"PopPlLat":27.7708606,"PopPlLong":-82.6792661,"ELEV_IN_M":13,"ELEV_IN_FT":43},"geometry":{"type":"Point","coordinates":[-82.6792661,27.770860600000162]}},{"type":"Feature","properties":{"GNIS_ID":292005,"ANSICODE":"2405568","FEATURE":"Civil","FEATURE2":"County Seat","NAME":"Tampa","POP_2010":335709,"COUNTY":"Hillsborough","COUNTYFIPS":"057","STATE":"FL","STATE_FIPS":"12","LATITUDE":27.9475216,"LONGITUDE":-82.4584279,"PopPlLat":27.9475216,"PopPlLong":-82.4584279,"ELEV_IN_M":5,"ELEV_IN_FT":16},"geometry":{"type":"Point","coordinates":[-82.45842789999995,27.947521600000073]}},{"type":"Feature","properties":{"GNIS_ID":351615,"ANSICODE":"2403126","FEATURE":"Civil","FEATURE2":"State Capital County Seat","NAME":"Atlanta","POP_2010":420003,"COUNTY":"Fulton","COUNTYFIPS":"121","STATE":"GA","STATE_FIPS":"13","LATITUDE":33.7489954,"LONGITUDE":-84.3879824,"PopPlLat":33.7489954,"PopPlLong":-84.3879824,"ELEV_IN_M":320,"ELEV_IN_FT":1050},"geometry":{"type":"Point","coordinates":[-84.38798239999994,33.748995400000126]}},{"type":"Feature","properties":{"GNIS_ID":331443,"ANSICODE":"2404111","FEATURE":"Civil","FEATURE2":"County Seat","NAME":"Columbus","POP_2010":189885,"COUNTY":"Muscogee","COUNTYFIPS":"215","STATE":"GA","STATE_FIPS":"13","LATITUDE":32.4609764,"LONGITUDE":-84.9877094,"PopPlLat":32.4609764,"PopPlLong":-84.9877094,"ELEV_IN_M":74,"ELEV_IN_FT":243},"geometry":{"type":"Point","coordinates":[-84.98770939999997,32.46097640000005]}},{"type":"Feature","properties":{"GNIS_ID":2414047,"ANSICODE":"-999","FEATURE":"Census","FEATURE2":"State Capital County Seat","NAME":"Honolulu","POP_2010":-999,"COUNTY":"Honolulu","COUNTYFIPS":"003","STATE":"HI","STATE_FIPS":"15","LATITUDE":21.3069444,"LONGITUDE":-157.8583333,"PopPlLat":21.3069444,"PopPlLong":-157.8583333,"ELEV_IN_M":5,"ELEV_IN_FT":16},"geometry":{"type":"Point","coordinates":[-157.8583333,21.306944400000077]}},{"type":"Feature","properties":{"GNIS_ID":-999,"ANSICODE":"2409876","FEATURE":"Civil","FEATURE2":"-999","NAME":"Boise City","POP_2010":205671,"COUNTY":"Ada","COUNTYFIPS":"001","STATE":"ID","STATE_FIPS":"16","LATITUDE":43.5991149,"LONGITUDE":-116.2306049,"PopPlLat":43.5991149,"PopPlLong":-116.2306049,"ELEV_IN_M":815,"ELEV_IN_FT":2674},"geometry":{"type":"Point","coordinates":[-116.23060489999995,43.59911490000019]}},{"type":"Feature","properties":{"GNIS_ID":400590,"ANSICODE":"-999","FEATURE":"Populated Place","FEATURE2":"State Capital County Seat","NAME":"Boise","POP_2010":205671,"COUNTY":"Ada","COUNTYFIPS":"001","STATE":"ID","STATE_FIPS":"16","LATITUDE":43.6135002,"LONGITUDE":-116.2034505,"PopPlLat":43.6135002,"PopPlLong":-116.2034505,"ELEV_IN_M":823,"ELEV_IN_FT":2700},"geometry":{"type":"Point","coordinates":[-116.20345049999997,43.61350020000009]}},{"type":"Feature","properties":{"GNIS_ID":423587,"ANSICODE":"428803","FEATURE":"Civil","FEATURE2":"County Seat","NAME":"Chicago","POP_2010":2695598,"COUNTY":"Cook","COUNTYFIPS":"031","STATE":"IL","STATE_FIPS":"17","LATITUDE":41.850033,"LONGITUDE":-87.6500523,"PopPlLat":41.850033,"PopPlLong":-87.6500523,"ELEV_IN_M":179,"ELEV_IN_FT":587},"geometry":{"type":"Point","coordinates":[-87.65005229999991,41.85003300000011]}},{"type":"Feature","properties":{"GNIS_ID":403732,"ANSICODE":"2394031","FEATURE":"Civil","FEATURE2":"-999","NAME":"Aurora","POP_2010":197899,"COUNTY":"Kane","COUNTYFIPS":"089","STATE":"IL","STATE_FIPS":"17","LATITUDE":41.7605849,"LONGITUDE":-88.3200715,"PopPlLat":41.7605849,"PopPlLong":-88.3200715,"ELEV_IN_M":207,"ELEV_IN_FT":679},"geometry":{"type":"Point","coordinates":[-88.32007149999998,41.76058489999997]}},{"type":"Feature","properties":{"GNIS_ID":416843,"ANSICODE":"2396405","FEATURE":"Civil","FEATURE2":"County Seat","NAME":"Rockford","POP_2010":152871,"COUNTY":"Winnebago","COUNTYFIPS":"201","STATE":"IL","STATE_FIPS":"17","LATITUDE":42.2711311,"LONGITUDE":-89.0939952,"PopPlLat":42.2711311,"PopPlLong":-89.0939952,"ELEV_IN_M":219,"ELEV_IN_FT":718},"geometry":{"type":"Point","coordinates":[-89.09399519999988,42.271131100000105]}},{"type":"Feature","properties":{"GNIS_ID":426595,"ANSICODE":"2395940","FEATURE":"Civil","FEATURE2":"State Capital County Seat","NAME":"Springfield","POP_2010":116250,"COUNTY":"Sangamon","COUNTYFIPS":"167","STATE":"IL","STATE_FIPS":"17","LATITUDE":39.8017171,"LONGITUDE":-89.6437107,"PopPlLat":39.8017171,"PopPlLong":-89.6437107,"ELEV_IN_M":183,"ELEV_IN_FT":600},"geometry":{"type":"Point","coordinates":[-89.64371069999993,39.80171710000019]}},{"type":"Feature","properties":{"GNIS_ID":434689,"ANSICODE":"2394798","FEATURE":"Civil","FEATURE2":"County Seat","NAME":"Fort Wayne","POP_2010":253691,"COUNTY":"Allen","COUNTYFIPS":"003","STATE":"IN","STATE_FIPS":"18","LATITUDE":41.1306041,"LONGITUDE":-85.1288597,"PopPlLat":41.1306041,"PopPlLong":-85.1288597,"ELEV_IN_M":247,"ELEV_IN_FT":810},"geometry":{"type":"Point","coordinates":[-85.12885969999996,41.13060410000003]}},{"type":"Feature","properties":{"GNIS_ID":2395423,"ANSICODE":"2395424","FEATURE":"Civil","FEATURE2":"State Capital County Seat","NAME":"Indianapolis","POP_2010":820445,"COUNTY":"Marion","COUNTYFIPS":"097","STATE":"IN","STATE_FIPS":"18","LATITUDE":39.7683765,"LONGITUDE":-86.1580423,"PopPlLat":39.7683765,"PopPlLong":-86.1580423,"ELEV_IN_M":219,"ELEV_IN_FT":718},"geometry":{"type":"Point","coordinates":[-86.15804229999998,39.768376500000045]}},{"type":"Feature","properties":{"GNIS_ID":465961,"ANSICODE":"2394522","FEATURE":"Civil","FEATURE2":"State Capital County Seat","NAME":"Des Moines","POP_2010":203433,"COUNTY":"Polk","COUNTYFIPS":"153","STATE":"IA","STATE_FIPS":"19","LATITUDE":41.6005448,"LONGITUDE":-93.6091064,"PopPlLat":41.6005448,"PopPlLong":-93.6091064,"ELEV_IN_M":266,"ELEV_IN_FT":873},"geometry":{"type":"Point","coordinates":[-93.60910639999997,41.60054480000008]}},{"type":"Feature","properties":{"GNIS_ID":485477,"ANSICODE":"485655","FEATURE":"Civil","FEATURE2":"State Capital County Seat","NAME":"Topeka","POP_2010":127473,"COUNTY":"Shawnee","COUNTYFIPS":"177","STATE":"KS","STATE_FIPS":"20","LATITUDE":39.0483336,"LONGITUDE":-95.6780371,"PopPlLat":39.0483336,"PopPlLong":-95.6780371,"ELEV_IN_M":289,"ELEV_IN_FT":948},"geometry":{"type":"Point","coordinates":[-95.67803709999993,39.04833360000015]}},{"type":"Feature","properties":{"GNIS_ID":473862,"ANSICODE":"485662","FEATURE":"Civil","FEATURE2":"County Seat","NAME":"Wichita","POP_2010":382368,"COUNTY":"Sedgwick","COUNTYFIPS":"173","STATE":"KS","STATE_FIPS":"20","LATITUDE":37.6922361,"LONGITUDE":-97.3375448,"PopPlLat":37.6922361,"PopPlLong":-97.3375448,"ELEV_IN_M":397,"ELEV_IN_FT":1302},"geometry":{"type":"Point","coordinates":[-97.33754479999999,37.69223610000006]}},{"type":"Feature","properties":{"GNIS_ID":479210,"ANSICODE":"485639","FEATURE":"Civil","FEATURE2":"-999","NAME":"Overland Park","POP_2010":173372,"COUNTY":"Johnson","COUNTYFIPS":"091","STATE":"KS","STATE_FIPS":"20","LATITUDE":38.9822282,"LONGITUDE":-94.6707917,"PopPlLat":38.9822282,"PopPlLong":-94.6707917,"ELEV_IN_M":330,"ELEV_IN_FT":1083},"geometry":{"type":"Point","coordinates":[-94.67079169999988,38.98222820000012]}},{"type":"Feature","properties":{"GNIS_ID":517517,"ANSICODE":"2403656","FEATURE":"Civil","FEATURE2":"State Capital County Seat","NAME":"Frankfort","POP_2010":25527,"COUNTY":"Franklin","COUNTYFIPS":"073","STATE":"KY","STATE_FIPS":"21","LATITUDE":38.2009055,"LONGITUDE":-84.8732836,"PopPlLat":38.2009055,"PopPlLong":-84.8732836,"ELEV_IN_M":154,"ELEV_IN_FT":505},"geometry":{"type":"Point","coordinates":[-84.87328359999992,38.200905499999976]}},{"type":"Feature","properties":{"GNIS_ID":1681812,"ANSICODE":"2405089","FEATURE":"Civil","FEATURE2":"County Seat","NAME":"Lexington","POP_2010":295803,"COUNTY":"Fayette","COUNTYFIPS":"067","STATE":"KY","STATE_FIPS":"21","LATITUDE":38.0497996,"LONGITUDE":-84.4585485,"PopPlLat":38.0497996,"PopPlLong":-84.4585485,"ELEV_IN_M":305,"ELEV_IN_FT":1001},"geometry":{"type":"Point","coordinates":[-84.45854849999989,38.04979960000014]}},{"type":"Feature","properties":{"GNIS_ID":2404963,"ANSICODE":"-999","FEATURE":"Civil","FEATURE2":"County Seat","NAME":"Louisville","POP_2010":597337,"COUNTY":"Jefferson","COUNTYFIPS":"111","STATE":"KY","STATE_FIPS":"21","LATITUDE":38.2542376,"LONGITUDE":-85.759407,"PopPlLat":38.2542376,"PopPlLong":-85.759407,"ELEV_IN_M":142,"ELEV_IN_FT":466},"geometry":{"type":"Point","coordinates":[-85.759407,38.25423760000007]}},{"type":"Feature","properties":{"GNIS_ID":1629985,"ANSICODE":"545142","FEATURE":"Civil","FEATURE2":"County Seat","NAME":"New Orleans","POP_2010":343829,"COUNTY":"Orleans","COUNTYFIPS":"071","STATE":"LA","STATE_FIPS":"22","LATITUDE":29.9546482,"LONGITUDE":-90.075072,"PopPlLat":29.9546482,"PopPlLong":-90.075072,"ELEV_IN_M":0,"ELEV_IN_FT":0},"geometry":{"type":"Point","coordinates":[-90.075072,29.954648200000065]}},{"type":"Feature","properties":{"GNIS_ID":1629914,"ANSICODE":"2403821","FEATURE":"Civil","FEATURE2":"State Capital County Seat","NAME":"Baton Rouge","POP_2010":229493,"COUNTY":"East Baton Rouge","COUNTYFIPS":"033","STATE":"LA","STATE_FIPS":"22","LATITUDE":30.4507462,"LONGITUDE":-91.154551,"PopPlLat":30.4507462,"PopPlLong":-91.154551,"ELEV_IN_M":14,"ELEV_IN_FT":46},"geometry":{"type":"Point","coordinates":[-91.154551,30.450746200000083]}},{"type":"Feature","properties":{"GNIS_ID":1630015,"ANSICODE":"2405463","FEATURE":"Civil","FEATURE2":"County Seat","NAME":"Shreveport","POP_2010":199311,"COUNTY":"Caddo","COUNTYFIPS":"017","STATE":"LA","STATE_FIPS":"22","LATITUDE":32.5065023089,"LONGITUDE":-93.7694109815,"PopPlLat":32.5251516,"PopPlLong":-93.7501789,"ELEV_IN_M":46,"ELEV_IN_FT":151},"geometry":{"type":"Point","coordinates":[-93.76941098146361,32.50650230888376]}},{"type":"Feature","properties":{"GNIS_ID":581636,"ANSICODE":"582334","FEATURE":"Civil","FEATURE2":"State Capital County Seat","NAME":"Augusta","POP_2010":19136,"COUNTY":"Kennebec","COUNTYFIPS":"011","STATE":"ME","STATE_FIPS":"23","LATITUDE":44.3106241,"LONGITUDE":-69.7794897,"PopPlLat":44.3106241,"PopPlLong":-69.7794897,"ELEV_IN_M":37,"ELEV_IN_FT":121},"geometry":{"type":"Point","coordinates":[-69.77948969999989,44.310624100000155]}},{"type":"Feature","properties":{"GNIS_ID":573692,"ANSICODE":"582683","FEATURE":"Civil","FEATURE2":"County Seat","NAME":"Portland","POP_2010":66194,"COUNTY":"Cumberland","COUNTYFIPS":"005","STATE":"ME","STATE_FIPS":"23","LATITUDE":43.661471,"LONGITUDE":-70.2553259,"PopPlLat":43.661471,"PopPlLong":-70.2553259,"ELEV_IN_M":19,"ELEV_IN_FT":62},"geometry":{"type":"Point","coordinates":[-70.25532589999995,43.66147100000012]}},{"type":"Feature","properties":{"GNIS_ID":597040,"ANSICODE":"1702381","FEATURE":"Civil","FEATURE2":"County Seat","NAME":"Baltimore","POP_2010":620961,"COUNTY":"Baltimore (city)","COUNTYFIPS":"510","STATE":"MD","STATE_FIPS":"24","LATITUDE":39.2903848,"LONGITUDE":-76.6121893,"PopPlLat":39.2903848,"PopPlLong":-76.6121893,"ELEV_IN_M":10,"ELEV_IN_FT":33},"geometry":{"type":"Point","coordinates":[-76.61218929999995,39.29038480000003]}},{"type":"Feature","properties":{"GNIS_ID":595031,"ANSICODE":"2390562","FEATURE":"Civil","FEATURE2":"State Capital County Seat","NAME":"Annapolis","POP_2010":38394,"COUNTY":"Anne Arundel","COUNTYFIPS":"003","STATE":"MD","STATE_FIPS":"24","LATITUDE":38.9784453,"LONGITUDE":-76.4921829,"PopPlLat":38.9784453,"PopPlLong":-76.4921829,"ELEV_IN_M":13,"ELEV_IN_FT":43},"geometry":{"type":"Point","coordinates":[-76.49218289999999,38.978445300000146]}},{"type":"Feature","properties":{"GNIS_ID":617867,"ANSICODE":"619493","FEATURE":"Civil","FEATURE2":"County Seat","NAME":"Worcester","POP_2010":181045,"COUNTY":"Worcester","COUNTYFIPS":"027","STATE":"MA","STATE_FIPS":"25","LATITUDE":42.2625932,"LONGITUDE":-71.8022934,"PopPlLat":42.2625932,"PopPlLong":-71.8022934,"ELEV_IN_M":146,"ELEV_IN_FT":479},"geometry":{"type":"Point","coordinates":[-71.80229339999988,42.26259320000014]}},{"type":"Feature","properties":{"GNIS_ID":617565,"ANSICODE":"619463","FEATURE":"Civil","FEATURE2":"State Capital County Seat","NAME":"Boston","POP_2010":617594,"COUNTY":"Suffolk","COUNTYFIPS":"025","STATE":"MA","STATE_FIPS":"25","LATITUDE":42.3584308,"LONGITUDE":-71.0597732,"PopPlLat":42.3584308,"PopPlLong":-71.0597732,"ELEV_IN_M":14,"ELEV_IN_FT":46},"geometry":{"type":"Point","coordinates":[-71.05977319999994,42.35843080000012]}},{"type":"Feature","properties":{"GNIS_ID":609092,"ANSICODE":"619388","FEATURE":"Civil","FEATURE2":"County Seat","NAME":"Springfield","POP_2010":153060,"COUNTY":"Hampden","COUNTYFIPS":"013","STATE":"MA","STATE_FIPS":"25","LATITUDE":42.1014831,"LONGITUDE":-72.589811,"PopPlLat":42.1014831,"PopPlLong":-72.589811,"ELEV_IN_M":19,"ELEV_IN_FT":62},"geometry":{"type":"Point","coordinates":[-72.58981099999988,42.101483100000166]}},{"type":"Feature","properties":{"GNIS_ID":627105,"ANSICODE":"1626373","FEATURE":"Civil","FEATURE2":"County Seat","NAME":"Grand Rapids","POP_2010":188040,"COUNTY":"Kent","COUNTYFIPS":"081","STATE":"MI","STATE_FIPS":"26","LATITUDE":42.9633599,"LONGITUDE":-85.6680863,"PopPlLat":42.9633599,"PopPlLong":-85.6680863,"ELEV_IN_M":195,"ELEV_IN_FT":640},"geometry":{"type":"Point","coordinates":[-85.6680863,42.963359900000114]}},{"type":"Feature","properties":{"GNIS_ID":1625035,"ANSICODE":"1626588","FEATURE":"Civil","FEATURE2":"State Capital","NAME":"Lansing","POP_2010":114297,"COUNTY":"Ingham","COUNTYFIPS":"065","STATE":"MI","STATE_FIPS":"26","LATITUDE":42.732535,"LONGITUDE":-84.5555347,"PopPlLat":42.732535,"PopPlLong":-84.5555347,"ELEV_IN_M":260,"ELEV_IN_FT":853},"geometry":{"type":"Point","coordinates":[-84.5555346999999,42.732535]}},{"type":"Feature","properties":{"GNIS_ID":1617959,"ANSICODE":"1626181","FEATURE":"Civil","FEATURE2":"County Seat","NAME":"Detroit","POP_2010":713777,"COUNTY":"Wayne","COUNTYFIPS":"163","STATE":"MI","STATE_FIPS":"26","LATITUDE":42.331427,"LONGITUDE":-83.0457538,"PopPlLat":42.331427,"PopPlLong":-83.0457538,"ELEV_IN_M":182,"ELEV_IN_FT":597},"geometry":{"type":"Point","coordinates":[-83.04575379999994,42.33142700000013]}},{"type":"Feature","properties":{"GNIS_ID":655030,"ANSICODE":"2395345","FEATURE":"Civil","FEATURE2":"County Seat","NAME":"Minneapolis","POP_2010":382578,"COUNTY":"Hennepin","COUNTYFIPS":"053","STATE":"MN","STATE_FIPS":"27","LATITUDE":44.9799654,"LONGITUDE":-93.2638361,"PopPlLat":44.9799654,"PopPlLong":-93.2638361,"ELEV_IN_M":253,"ELEV_IN_FT":830},"geometry":{"type":"Point","coordinates":[-93.2638361,44.979965400000026]}},{"type":"Feature","properties":{"GNIS_ID":662851,"ANSICODE":"2396511","FEATURE":"Civil","FEATURE2":"State Capital County Seat","NAME":"Saint Paul","POP_2010":285068,"COUNTY":"Ramsey","COUNTYFIPS":"123","STATE":"MN","STATE_FIPS":"27","LATITUDE":44.9444101,"LONGITUDE":-93.0932742,"PopPlLat":44.9444101,"PopPlLong":-93.0932742,"ELEV_IN_M":242,"ELEV_IN_FT":794},"geometry":{"type":"Point","coordinates":[-93.09327419999988,44.9444101]}},{"type":"Feature","properties":{"GNIS_ID":711543,"ANSICODE":"2404779","FEATURE":"Civil","FEATURE2":"State Capital County Seat","NAME":"Jackson","POP_2010":173514,"COUNTY":"Hinds","COUNTYFIPS":"049","STATE":"MS","STATE_FIPS":"28","LATITUDE":32.2987573,"LONGITUDE":-90.1848103,"PopPlLat":32.2987573,"PopPlLong":-90.1848103,"ELEV_IN_M":85,"ELEV_IN_FT":279},"geometry":{"type":"Point","coordinates":[-90.18481029999992,32.29875730000015]}},{"type":"Feature","properties":{"GNIS_ID":765765,"ANSICODE":"767557","FEATURE":"Civil","FEATURE2":"County Seat","NAME":"Saint Louis","POP_2010":319294,"COUNTY":"St. Louis (city)","COUNTYFIPS":"510","STATE":"MO","STATE_FIPS":"29","LATITUDE":38.6272733,"LONGITUDE":-90.1978889,"PopPlLat":38.6272733,"PopPlLong":-90.1978889,"ELEV_IN_M":141,"ELEV_IN_FT":463},"geometry":{"type":"Point","coordinates":[-90.1978888999999,38.62727330000007]}},{"type":"Feature","properties":{"GNIS_ID":748198,"ANSICODE":"2395492","FEATURE":"Civil","FEATURE2":"-999","NAME":"Kansas City","POP_2010":459787,"COUNTY":"Jackson","COUNTYFIPS":"095","STATE":"MO","STATE_FIPS":"29","LATITUDE":39.0997266,"LONGITUDE":-94.5785667,"PopPlLat":39.1141708,"PopPlLong":-94.627457,"ELEV_IN_M":274,"ELEV_IN_FT":899},"geometry":{"type":"Point","coordinates":[-94.57856669999995,39.09972660000017]}},{"type":"Feature","properties":{"GNIS_ID":758233,"ANSICODE":"2395462","FEATURE":"Civil","FEATURE2":"State Capital County Seat","NAME":"Jefferson City","POP_2010":43079,"COUNTY":"Cole","COUNTYFIPS":"051","STATE":"MO","STATE_FIPS":"29","LATITUDE":38.5767017,"LONGITUDE":-92.1735164,"PopPlLat":38.5767017,"PopPlLong":-92.1735164,"ELEV_IN_M":192,"ELEV_IN_FT":630},"geometry":{"type":"Point","coordinates":[-92.17351639999998,38.57670170000017]}},{"type":"Feature","properties":{"GNIS_ID":735864,"ANSICODE":"2395942","FEATURE":"Civil","FEATURE2":"County Seat","NAME":"Springfield","POP_2010":159498,"COUNTY":"Greene","COUNTYFIPS":"077","STATE":"MO","STATE_FIPS":"29","LATITUDE":37.215326,"LONGITUDE":-93.2982436,"PopPlLat":37.215326,"PopPlLong":-93.2982436,"ELEV_IN_M":396,"ELEV_IN_FT":1299},"geometry":{"type":"Point","coordinates":[-93.29824359999992,37.215326000000175]}},{"type":"Feature","properties":{"GNIS_ID":802116,"ANSICODE":"2410734","FEATURE":"Civil","FEATURE2":"State Capital County Seat","NAME":"Helena","POP_2010":28190,"COUNTY":"Lewis and Clark","COUNTYFIPS":"049","STATE":"MT","STATE_FIPS":"30","LATITUDE":46.5927122,"LONGITUDE":-112.036109,"PopPlLat":46.5927122,"PopPlLong":-112.036109,"ELEV_IN_M":1237,"ELEV_IN_FT":4058},"geometry":{"type":"Point","coordinates":[-112.0361089999999,46.59271220000005]}},{"type":"Feature","properties":{"GNIS_ID":835483,"ANSICODE":"2396064","FEATURE":"Civil","FEATURE2":"County Seat","NAME":"Omaha","POP_2010":408958,"COUNTY":"Douglas","COUNTYFIPS":"055","STATE":"NE","STATE_FIPS":"31","LATITUDE":41.2586096,"LONGITUDE":-95.937792,"PopPlLat":41.2586096,"PopPlLong":-95.937792,"ELEV_IN_M":323,"ELEV_IN_FT":1060},"geometry":{"type":"Point","coordinates":[-95.937792,41.25860960000006]}},{"type":"Feature","properties":{"GNIS_ID":837279,"ANSICODE":"2395713","FEATURE":"Civil","FEATURE2":"State Capital County Seat","NAME":"Lincoln","POP_2010":258379,"COUNTY":"Lancaster","COUNTYFIPS":"109","STATE":"NE","STATE_FIPS":"31","LATITUDE":40.8000011,"LONGITUDE":-96.6669599,"PopPlLat":40.8000011,"PopPlLong":-96.6669599,"ELEV_IN_M":366,"ELEV_IN_FT":1201},"geometry":{"type":"Point","coordinates":[-96.66695989999988,40.80000110000009]}},{"type":"Feature","properties":{"GNIS_ID":863976,"ANSICODE":"863219","FEATURE":"Civil","FEATURE2":"State Capital County Seat","NAME":"Carson City","POP_2010":55274,"COUNTY":"Carson City (city)","COUNTYFIPS":"510","STATE":"NV","STATE_FIPS":"32","LATITUDE":39.1637984,"LONGITUDE":-119.7674034,"PopPlLat":39.1637984,"PopPlLong":-119.7674034,"ELEV_IN_M":1427,"ELEV_IN_FT":4682},"geometry":{"type":"Point","coordinates":[-119.76740339999998,39.16379840000013]}},{"type":"Feature","properties":{"GNIS_ID":861100,"ANSICODE":"2410923","FEATURE":"Civil","FEATURE2":"County Seat","NAME":"Reno","POP_2010":225221,"COUNTY":"Washoe","COUNTYFIPS":"031","STATE":"NV","STATE_FIPS":"32","LATITUDE":39.5296329,"LONGITUDE":-119.8138027,"PopPlLat":39.5296329,"PopPlLong":-119.8138027,"ELEV_IN_M":1373,"ELEV_IN_FT":4505},"geometry":{"type":"Point","coordinates":[-119.8138027,39.52963290000014]}},{"type":"Feature","properties":{"GNIS_ID":856267,"ANSICODE":"2410741","FEATURE":"Civil","FEATURE2":"-999","NAME":"Henderson","POP_2010":257729,"COUNTY":"Clark","COUNTYFIPS":"003","STATE":"NV","STATE_FIPS":"32","LATITUDE":36.0396988,"LONGITUDE":-114.9819368,"PopPlLat":36.0396988,"PopPlLong":-114.9819368,"ELEV_IN_M":569,"ELEV_IN_FT":1867},"geometry":{"type":"Point","coordinates":[-114.98193679999997,36.03969880000005]}},{"type":"Feature","properties":{"GNIS_ID":847435,"ANSICODE":"2411273","FEATURE":"Civil","FEATURE2":"-999","NAME":"North Las Vegas","POP_2010":216961,"COUNTY":"Clark","COUNTYFIPS":"003","STATE":"NV","STATE_FIPS":"32","LATITUDE":36.1988592,"LONGITUDE":-115.1175013,"PopPlLat":36.1988592,"PopPlLong":-115.1175013,"ELEV_IN_M":565,"ELEV_IN_FT":1854},"geometry":{"type":"Point","coordinates":[-115.1175012999999,36.198859200000186]}},{"type":"Feature","properties":{"GNIS_ID":847388,"ANSICODE":"2411630","FEATURE":"Civil","FEATURE2":"County Seat","NAME":"Las Vegas","POP_2010":583756,"COUNTY":"Clark","COUNTYFIPS":"003","STATE":"NV","STATE_FIPS":"32","LATITUDE":36.1749705,"LONGITUDE":-115.137223,"PopPlLat":36.1749705,"PopPlLong":-115.137223,"ELEV_IN_M":610,"ELEV_IN_FT":2001},"geometry":{"type":"Point","coordinates":[-115.137223,36.17497050000003]}},{"type":"Feature","properties":{"GNIS_ID":873303,"ANSICODE":"873569","FEATURE":"Civil","FEATURE2":"State Capital County Seat","NAME":"Concord","POP_2010":42695,"COUNTY":"Merrimack","COUNTYFIPS":"013","STATE":"NH","STATE_FIPS":"33","LATITUDE":43.2081366,"LONGITUDE":-71.5375718,"PopPlLat":43.2081366,"PopPlLong":-71.5375718,"ELEV_IN_M":83,"ELEV_IN_FT":272},"geometry":{"type":"Point","coordinates":[-71.5375718,43.2081366000001]}},{"type":"Feature","properties":{"GNIS_ID":868243,"ANSICODE":"873658","FEATURE":"Civil","FEATURE2":"-999","NAME":"Manchester","POP_2010":109565,"COUNTY":"Hillsborough","COUNTYFIPS":"011","STATE":"NH","STATE_FIPS":"33","LATITUDE":42.9956397,"LONGITUDE":-71.4547891,"PopPlLat":42.9956397,"PopPlLong":-71.4547891,"ELEV_IN_M":79,"ELEV_IN_FT":259},"geometry":{"type":"Point","coordinates":[-71.45478909999991,42.99563970000003]}},{"type":"Feature","properties":{"GNIS_ID":868677,"ANSICODE":"873672","FEATURE":"Civil","FEATURE2":"County Seat","NAME":"Nashua","POP_2010":86494,"COUNTY":"Hillsborough","COUNTYFIPS":"011","STATE":"NH","STATE_FIPS":"33","LATITUDE":42.7653662,"LONGITUDE":-71.467566,"PopPlLat":42.7653662,"PopPlLong":-71.467566,"ELEV_IN_M":49,"ELEV_IN_FT":161},"geometry":{"type":"Point","coordinates":[-71.467566,42.76536620000013]}},{"type":"Feature","properties":{"GNIS_ID":884540,"ANSICODE":"885421","FEATURE":"Civil","FEATURE2":"State Capital County Seat","NAME":"Trenton","POP_2010":84913,"COUNTY":"Mercer","COUNTYFIPS":"021","STATE":"NJ","STATE_FIPS":"34","LATITUDE":40.2170534,"LONGITUDE":-74.7429385,"PopPlLat":40.2170534,"PopPlLong":-74.7429385,"ELEV_IN_M":18,"ELEV_IN_FT":59},"geometry":{"type":"Point","coordinates":[-74.7429385,40.217053400000054]}},{"type":"Feature","properties":{"GNIS_ID":878762,"ANSICODE":"885317","FEATURE":"Civil","FEATURE2":"County Seat","NAME":"Newark","POP_2010":277140,"COUNTY":"Essex","COUNTYFIPS":"013","STATE":"NJ","STATE_FIPS":"34","LATITUDE":40.735657,"LONGITUDE":-74.1723667,"PopPlLat":40.735657,"PopPlLong":-74.1723667,"ELEV_IN_M":9,"ELEV_IN_FT":30},"geometry":{"type":"Point","coordinates":[-74.17236669999988,40.735657000000174]}},{"type":"Feature","properties":{"GNIS_ID":877450,"ANSICODE":"885264","FEATURE":"Civil","FEATURE2":"County Seat","NAME":"Jersey City","POP_2010":247597,"COUNTY":"Hudson","COUNTYFIPS":"017","STATE":"NJ","STATE_FIPS":"34","LATITUDE":40.7281575,"LONGITUDE":-74.0776417,"PopPlLat":40.7281575,"PopPlLong":-74.0776417,"ELEV_IN_M":9,"ELEV_IN_FT":30},"geometry":{"type":"Point","coordinates":[-74.07764169999996,40.72815750000012]}},{"type":"Feature","properties":{"GNIS_ID":928679,"ANSICODE":"2409678","FEATURE":"Civil","FEATURE2":"County Seat","NAME":"Albuquerque","POP_2010":545852,"COUNTY":"Bernalillo","COUNTYFIPS":"001","STATE":"NM","STATE_FIPS":"35","LATITUDE":35.0844909,"LONGITUDE":-106.6511367,"PopPlLat":35.0844909,"PopPlLong":-106.6511367,"ELEV_IN_M":1510,"ELEV_IN_FT":4954},"geometry":{"type":"Point","coordinates":[-106.65113669999988,35.08449090000016]}},{"type":"Feature","properties":{"GNIS_ID":936823,"ANSICODE":"2411821","FEATURE":"Civil","FEATURE2":"State Capital County Seat","NAME":"Santa Fe","POP_2010":67947,"COUNTY":"Santa Fe","COUNTYFIPS":"049","STATE":"NM","STATE_FIPS":"35","LATITUDE":35.6869752,"LONGITUDE":-105.937799,"PopPlLat":35.6869752,"PopPlLong":-105.937799,"ELEV_IN_M":2132,"ELEV_IN_FT":6995},"geometry":{"type":"Point","coordinates":[-105.937799,35.68697520000006]}},{"type":"Feature","properties":{"GNIS_ID":962684,"ANSICODE":"979426","FEATURE":"Civil","FEATURE2":"County Seat","NAME":"Rochester","POP_2010":210565,"COUNTY":"Monroe","COUNTYFIPS":"055","STATE":"NY","STATE_FIPS":"36","LATITUDE":43.1547845,"LONGITUDE":-77.6155568,"PopPlLat":43.1547845,"PopPlLong":-77.6155568,"ELEV_IN_M":154,"ELEV_IN_FT":505},"geometry":{"type":"Point","coordinates":[-77.61555679999998,43.15478450000012]}},{"type":"Feature","properties":{"GNIS_ID":973345,"ANSICODE":"978764","FEATURE":"Civil","FEATURE2":"County Seat","NAME":"Buffalo","POP_2010":261310,"COUNTY":"Erie","COUNTYFIPS":"029","STATE":"NY","STATE_FIPS":"36","LATITUDE":42.8864468,"LONGITUDE":-78.8783689,"PopPlLat":42.8864468,"PopPlLong":-78.8783689,"ELEV_IN_M":183,"ELEV_IN_FT":600},"geometry":{"type":"Point","coordinates":[-78.87836889999994,42.8864468000001]}},{"type":"Feature","properties":{"GNIS_ID":977310,"ANSICODE":"978659","FEATURE":"Civil","FEATURE2":"State Capital County Seat","NAME":"Albany","POP_2010":97856,"COUNTY":"Albany","COUNTYFIPS":"001","STATE":"NY","STATE_FIPS":"36","LATITUDE":42.6525793,"LONGITUDE":-73.7562317,"PopPlLat":42.6525793,"PopPlLong":-73.7562317,"ELEV_IN_M":45,"ELEV_IN_FT":148},"geometry":{"type":"Point","coordinates":[-73.75623169999994,42.65257930000001]}},{"type":"Feature","properties":{"GNIS_ID":971828,"ANSICODE":"979660","FEATURE":"Civil","FEATURE2":"-999","NAME":"Yonkers","POP_2010":195976,"COUNTY":"Westchester","COUNTYFIPS":"119","STATE":"NY","STATE_FIPS":"36","LATITUDE":40.9312099,"LONGITUDE":-73.8987469,"PopPlLat":40.9312099,"PopPlLong":-73.8987469,"ELEV_IN_M":25,"ELEV_IN_FT":82},"geometry":{"type":"Point","coordinates":[-73.89874689999988,40.93120990000017]}},{"type":"Feature","properties":{"GNIS_ID":-999,"ANSICODE":"2395220","FEATURE":"Civil","FEATURE2":"-999","NAME":"New York","POP_2010":8175133,"COUNTY":"New York","COUNTYFIPS":"061","STATE":"NY","STATE_FIPS":"36","LATITUDE":40.7614927583,"LONGITUDE":-73.9814311179,"PopPlLat":40.6639311,"PopPlLong":-73.9382702,"ELEV_IN_M":32,"ELEV_IN_FT":105},"geometry":{"type":"Point","coordinates":[-73.98143111794995,40.76149275828293]}},{"type":"Feature","properties":{"GNIS_ID":971944,"ANSICODE":"-999","FEATURE":"Populated Place","FEATURE2":"-999","NAME":"The Bronx","POP_2010":1408473,"COUNTY":"Bronx","COUNTYFIPS":"005","STATE":"NY","STATE_FIPS":"36","LATITUDE":40.84992814,"LONGITUDE":-73.8661794194,"PopPlLat":40.8501,"PopPlLong":40.8501,"ELEV_IN_M":16,"ELEV_IN_FT":52},"geometry":{"type":"Point","coordinates":[-73.86617941943673,40.84992813998506]}},{"type":"Feature","properties":{"GNIS_ID":971945,"ANSICODE":"-999","FEATURE":"Populated Place","FEATURE2":"-999","NAME":"Manhattan","POP_2010":1619090,"COUNTY":"New York","COUNTYFIPS":"061","STATE":"NY","STATE_FIPS":"36","LATITUDE":40.7834616538,"LONGITUDE":-73.9661856608,"PopPlLat":40.783435,"PopPlLong":-73.96625,"ELEV_IN_M":35,"ELEV_IN_FT":115},"geometry":{"type":"Point","coordinates":[-73.966185660816,40.783461653830884]}},{"type":"Feature","properties":{"GNIS_ID":1783503,"ANSICODE":"-999","FEATURE":"Populated Place","FEATURE2":"-999","NAME":"Brooklyn","POP_2010":2565635,"COUNTY":"Kings County","COUNTYFIPS":"047","STATE":"NY","STATE_FIPS":"36","LATITUDE":40.6500928645,"LONGITUDE":-73.9495636646,"PopPlLat":40.650104,"PopPlLong":-73.949582,"ELEV_IN_M":15,"ELEV_IN_FT":49},"geometry":{"type":"Point","coordinates":[-73.94956366461773,40.65009286445409]}},{"type":"Feature","properties":{"GNIS_ID":971983,"ANSICODE":"-999","FEATURE":"Populated Place","FEATURE2":"-999","NAME":"Queens","POP_2010":2272771,"COUNTY":"Queens County","COUNTYFIPS":"081","STATE":"NY","STATE_FIPS":"36","LATITUDE":40.7501621407,"LONGITUDE":-73.7974453487,"PopPlLat":40.749824,"PopPlLong":-73.797634,"ELEV_IN_M":12,"ELEV_IN_FT":39},"geometry":{"type":"Point","coordinates":[-73.79744534868894,40.75016214067753]}},{"type":"Feature","properties":{"GNIS_ID":1802959,"ANSICODE":"-999","FEATURE":"Populated Place","FEATURE2":"-999","NAME":"Staten Island","POP_2010":470728,"COUNTY":"Richmond County","COUNTYFIPS":"085","STATE":"NY","STATE_FIPS":"36","LATITUDE":40.5832807203,"LONGITUDE":-74.1498123785,"PopPlLat":40.583438,"PopPlLong":-74.149588,"ELEV_IN_M":50,"ELEV_IN_FT":164},"geometry":{"type":"Point","coordinates":[-74.14981237852962,40.58328072025186]}},{"type":"Feature","properties":{"GNIS_ID":1020557,"ANSICODE":"2403745","FEATURE":"Civil","FEATURE2":"County Seat","NAME":"Greensboro","POP_2010":269666,"COUNTY":"Guilford","COUNTYFIPS":"081","STATE":"NC","STATE_FIPS":"37","LATITUDE":36.0726355,"LONGITUDE":-79.7919754,"PopPlLat":36.0726355,"PopPlLong":-79.7919754,"ELEV_IN_M":252,"ELEV_IN_FT":827},"geometry":{"type":"Point","coordinates":[-79.7919753999999,36.0726355000001]}},{"type":"Feature","properties":{"GNIS_ID":1020059,"ANSICODE":"2403521","FEATURE":"Civil","FEATURE2":"County Seat","NAME":"Durham","POP_2010":228330,"COUNTY":"Durham","COUNTYFIPS":"063","STATE":"NC","STATE_FIPS":"37","LATITUDE":35.9940329,"LONGITUDE":-78.898619,"PopPlLat":35.9940329,"PopPlLong":-78.898619,"ELEV_IN_M":122,"ELEV_IN_FT":400},"geometry":{"type":"Point","coordinates":[-78.89861899999988,35.99403290000009]}},{"type":"Feature","properties":{"GNIS_ID":1020226,"ANSICODE":"2403604","FEATURE":"Civil","FEATURE2":"County Seat","NAME":"Fayetteville","POP_2010":200564,"COUNTY":"Cumberland","COUNTYFIPS":"051","STATE":"NC","STATE_FIPS":"37","LATITUDE":35.0526641,"LONGITUDE":-78.8783585,"PopPlLat":35.0526641,"PopPlLong":-78.8783585,"ELEV_IN_M":31,"ELEV_IN_FT":102},"geometry":{"type":"Point","coordinates":[-78.87835849999993,35.05266410000007]}},{"type":"Feature","properties":{"GNIS_ID":1024242,"ANSICODE":"2404590","FEATURE":"Civil","FEATURE2":"State Capital County Seat","NAME":"Raleigh","POP_2010":403892,"COUNTY":"Wake","COUNTYFIPS":"183","STATE":"NC","STATE_FIPS":"37","LATITUDE":35.772096,"LONGITUDE":-78.6386145,"PopPlLat":35.772096,"PopPlLong":-78.6386145,"ELEV_IN_M":96,"ELEV_IN_FT":315},"geometry":{"type":"Point","coordinates":[-78.6386145,35.772096]}},{"type":"Feature","properties":{"GNIS_ID":1019610,"ANSICODE":"2404032","FEATURE":"Civil","FEATURE2":"County Seat","NAME":"Charlotte","POP_2010":731424,"COUNTY":"Mecklenburg","COUNTYFIPS":"119","STATE":"NC","STATE_FIPS":"37","LATITUDE":35.2270869,"LONGITUDE":-80.8431268,"PopPlLat":35.2270869,"PopPlLong":-80.8431268,"ELEV_IN_M":232,"ELEV_IN_FT":761},"geometry":{"type":"Point","coordinates":[-80.84312679999994,35.227086900000074]}},{"type":"Feature","properties":{"GNIS_ID":997498,"ANSICODE":"2405771","FEATURE":"Civil","FEATURE2":"County Seat","NAME":"Winston-Salem","POP_2010":229617,"COUNTY":"Forsyth","COUNTYFIPS":"067","STATE":"NC","STATE_FIPS":"37","LATITUDE":36.0998596,"LONGITUDE":-80.244216,"PopPlLat":36.0998596,"PopPlLong":-80.244216,"ELEV_IN_M":278,"ELEV_IN_FT":912},"geometry":{"type":"Point","coordinates":[-80.244216,36.09985960000006]}},{"type":"Feature","properties":{"GNIS_ID":1029197,"ANSICODE":"1036064","FEATURE":"Civil","FEATURE2":"County Seat","NAME":"Grand Forks","POP_2010":52838,"COUNTY":"Grand Forks","COUNTYFIPS":"035","STATE":"ND","STATE_FIPS":"38","LATITUDE":47.9252568,"LONGITUDE":-97.0328547,"PopPlLat":47.9252568,"PopPlLong":-97.0328547,"ELEV_IN_M":253,"ELEV_IN_FT":830},"geometry":{"type":"Point","coordinates":[-97.03285469999997,47.92525680000006]}},{"type":"Feature","properties":{"GNIS_ID":1028945,"ANSICODE":"1036030","FEATURE":"Civil","FEATURE2":"County Seat","NAME":"Fargo","POP_2010":105549,"COUNTY":"Cass","COUNTYFIPS":"017","STATE":"ND","STATE_FIPS":"38","LATITUDE":46.8771863,"LONGITUDE":-96.7898034,"PopPlLat":46.8771863,"PopPlLong":-96.7898034,"ELEV_IN_M":275,"ELEV_IN_FT":902},"geometry":{"type":"Point","coordinates":[-96.78980339999998,46.87718630000012]}},{"type":"Feature","properties":{"GNIS_ID":1035849,"ANSICODE":"1035934","FEATURE":"Civil","FEATURE2":"State Capital County Seat","NAME":"Bismarck","POP_2010":61272,"COUNTY":"Burleigh","COUNTYFIPS":"015","STATE":"ND","STATE_FIPS":"38","LATITUDE":46.8083268,"LONGITUDE":-100.7837392,"PopPlLat":46.8083268,"PopPlLong":-100.7837392,"ELEV_IN_M":517,"ELEV_IN_FT":1696},"geometry":{"type":"Point","coordinates":[-100.78373919999996,46.808326800000145]}},{"type":"Feature","properties":{"GNIS_ID":1067015,"ANSICODE":"1086537","FEATURE":"Civil","FEATURE2":"County Seat","NAME":"Toledo","POP_2010":287208,"COUNTY":"Lucas","COUNTYFIPS":"095","STATE":"OH","STATE_FIPS":"39","LATITUDE":41.6639383,"LONGITUDE":-83.555212,"PopPlLat":41.6639383,"PopPlLong":-83.555212,"ELEV_IN_M":186,"ELEV_IN_FT":610},"geometry":{"type":"Point","coordinates":[-83.555212,41.66393830000004]}},{"type":"Feature","properties":{"GNIS_ID":1066654,"ANSICODE":"1085963","FEATURE":"Civil","FEATURE2":"County Seat","NAME":"Cleveland","POP_2010":396815,"COUNTY":"Cuyahoga","COUNTYFIPS":"035","STATE":"OH","STATE_FIPS":"39","LATITUDE":41.4994954,"LONGITUDE":-81.6954088,"PopPlLat":41.4994954,"PopPlLong":-81.6954088,"ELEV_IN_M":199,"ELEV_IN_FT":653},"geometry":{"type":"Point","coordinates":[-81.69540879999988,41.49949540000017]}},{"type":"Feature","properties":{"GNIS_ID":1064305,"ANSICODE":"1086993","FEATURE":"Civil","FEATURE2":"County Seat","NAME":"Akron","POP_2010":199110,"COUNTY":"Summit","COUNTYFIPS":"153","STATE":"OH","STATE_FIPS":"39","LATITUDE":41.0814447,"LONGITUDE":-81.5190053,"PopPlLat":41.0814447,"PopPlLong":-81.5190053,"ELEV_IN_M":293,"ELEV_IN_FT":961},"geometry":{"type":"Point","coordinates":[-81.51900529999989,41.08144470000008]}},{"type":"Feature","properties":{"GNIS_ID":1080996,"ANSICODE":"1086101","FEATURE":"Civil","FEATURE2":"State Capital County Seat","NAME":"Columbus","POP_2010":787033,"COUNTY":"Franklin","COUNTYFIPS":"049","STATE":"OH","STATE_FIPS":"39","LATITUDE":39.9611755,"LONGITUDE":-82.9987942,"PopPlLat":39.9611755,"PopPlLong":-82.9987942,"ELEV_IN_M":238,"ELEV_IN_FT":781},"geometry":{"type":"Point","coordinates":[-82.9987941999999,39.96117550000014]}},{"type":"Feature","properties":{"GNIS_ID":1066650,"ANSICODE":"1086201","FEATURE":"Civil","FEATURE2":"County Seat","NAME":"Cincinnati","POP_2010":296943,"COUNTY":"Hamilton","COUNTYFIPS":"061","STATE":"OH","STATE_FIPS":"39","LATITUDE":39.1146630957,"LONGITUDE":-84.5296864149,"PopPlLat":39.1620036,"PopPlLong":-84.4568863,"ELEV_IN_M":191,"ELEV_IN_FT":627},"geometry":{"type":"Point","coordinates":[-84.52968641491206,39.11466309565821]}},{"type":"Feature","properties":{"GNIS_ID":1102140,"ANSICODE":"2411311","FEATURE":"Civil","FEATURE2":"State Capital County Seat","NAME":"Oklahoma City","POP_2010":579999,"COUNTY":"Oklahoma","COUNTYFIPS":"109","STATE":"OK","STATE_FIPS":"40","LATITUDE":35.4715076006,"LONGITUDE":-97.5402106885,"PopPlLat":35.4675602,"PopPlLong":-97.5164276,"ELEV_IN_M":365,"ELEV_IN_FT":1197},"geometry":{"type":"Point","coordinates":[-97.54021068845765,35.47150760057398]}},{"type":"Feature","properties":{"GNIS_ID":1100962,"ANSICODE":"2412110","FEATURE":"Civil","FEATURE2":"County Seat","NAME":"Tulsa","POP_2010":391906,"COUNTY":"Tulsa","COUNTYFIPS":"143","STATE":"OK","STATE_FIPS":"40","LATITUDE":36.1579290006,"LONGITUDE":-96.0165580885,"PopPlLat":36.1539816,"PopPlLong":-95.992775,"ELEV_IN_M":220,"ELEV_IN_FT":722},"geometry":{"type":"Point","coordinates":[-96.01655808845754,36.15792900057401]}},{"type":"Feature","properties":{"GNIS_ID":1136645,"ANSICODE":"2411471","FEATURE":"Civil","FEATURE2":"County Seat","NAME":"Portland","POP_2010":583776,"COUNTY":"Multnomah","COUNTYFIPS":"051","STATE":"OR","STATE_FIPS":"41","LATITUDE":45.5234515,"LONGITUDE":-122.6762071,"PopPlLat":45.5234515,"PopPlLong":-122.6762071,"ELEV_IN_M":10,"ELEV_IN_FT":33},"geometry":{"type":"Point","coordinates":[-122.67620709999994,45.523451500000135]}},{"type":"Feature","properties":{"GNIS_ID":1120527,"ANSICODE":"2410460","FEATURE":"Civil","FEATURE2":"County Seat","NAME":"Eugene","POP_2010":156185,"COUNTY":"Lane","COUNTYFIPS":"039","STATE":"OR","STATE_FIPS":"41","LATITUDE":44.0520691,"LONGITUDE":-123.0867536,"PopPlLat":44.0520691,"PopPlLong":-123.0867536,"ELEV_IN_M":131,"ELEV_IN_FT":430},"geometry":{"type":"Point","coordinates":[-123.08675359999995,44.05206910000004]}},{"type":"Feature","properties":{"GNIS_ID":1167861,"ANSICODE":"2411764","FEATURE":"Civil","FEATURE2":"State Capital County Seat","NAME":"Salem","POP_2010":154637,"COUNTY":"Marion","COUNTYFIPS":"047","STATE":"OR","STATE_FIPS":"41","LATITUDE":44.9428975,"LONGITUDE":-123.0350963,"PopPlLat":44.9428975,"PopPlLong":-123.0350963,"ELEV_IN_M":48,"ELEV_IN_FT":157},"geometry":{"type":"Point","coordinates":[-123.03509629999996,44.94289750000007]}},{"type":"Feature","properties":{"GNIS_ID":1209052,"ANSICODE":"1215531","FEATURE":"Civil","FEATURE2":"County Seat","NAME":"Philadelphia","POP_2010":1526006,"COUNTY":"Philadelphia","COUNTYFIPS":"101","STATE":"PA","STATE_FIPS":"42","LATITUDE":39.952335,"LONGITUDE":-75.163789,"PopPlLat":39.952335,"PopPlLong":-75.163789,"ELEV_IN_M":14,"ELEV_IN_FT":46},"geometry":{"type":"Point","coordinates":[-75.1637889999999,39.952335000000176]}},{"type":"Feature","properties":{"GNIS_ID":1213644,"ANSICODE":"1214818","FEATURE":"Civil","FEATURE2":"County Seat","NAME":"Pittsburgh","POP_2010":305704,"COUNTY":"Allegheny","COUNTYFIPS":"003","STATE":"PA","STATE_FIPS":"42","LATITUDE":40.4406248,"LONGITUDE":-79.9958864,"PopPlLat":40.4406248,"PopPlLong":-79.9958864,"ELEV_IN_M":233,"ELEV_IN_FT":764},"geometry":{"type":"Point","coordinates":[-79.9958863999999,40.44062480000014]}},{"type":"Feature","properties":{"GNIS_ID":1213649,"ANSICODE":"1215162","FEATURE":"Civil","FEATURE2":"State Capital County Seat","NAME":"Harrisburg","POP_2010":49528,"COUNTY":"Dauphin","COUNTYFIPS":"043","STATE":"PA","STATE_FIPS":"42","LATITUDE":40.2737002,"LONGITUDE":-76.8844179,"PopPlLat":40.2737002,"PopPlLong":-76.8844179,"ELEV_IN_M":101,"ELEV_IN_FT":331},"geometry":{"type":"Point","coordinates":[-76.8844179,40.27370020000012]}},{"type":"Feature","properties":{"GNIS_ID":1219851,"ANSICODE":"1220076","FEATURE":"Civil","FEATURE2":"State Capital","NAME":"Providence","POP_2010":178042,"COUNTY":"Providence","COUNTYFIPS":"007","STATE":"RI","STATE_FIPS":"44","LATITUDE":41.8239891,"LONGITUDE":-71.4128343,"PopPlLat":41.8239891,"PopPlLong":-71.4128343,"ELEV_IN_M":3,"ELEV_IN_FT":10},"geometry":{"type":"Point","coordinates":[-71.41283429999999,41.82398910000012]}},{"type":"Feature","properties":{"GNIS_ID":1245051,"ANSICODE":"2404107","FEATURE":"Civil","FEATURE2":"State Capital County Seat","NAME":"Columbia","POP_2010":129272,"COUNTY":"Richland","COUNTYFIPS":"079","STATE":"SC","STATE_FIPS":"45","LATITUDE":34.0007104,"LONGITUDE":-81.0348144,"PopPlLat":34.0007104,"PopPlLong":-81.0348144,"ELEV_IN_M":88,"ELEV_IN_FT":289},"geometry":{"type":"Point","coordinates":[-81.0348143999999,34.00071040000006]}},{"type":"Feature","properties":{"GNIS_ID":1221516,"ANSICODE":"2404030","FEATURE":"Civil","FEATURE2":"County Seat","NAME":"Charleston","POP_2010":120083,"COUNTY":"Charleston","COUNTYFIPS":"019","STATE":"SC","STATE_FIPS":"45","LATITUDE":32.7765656,"LONGITUDE":-79.9309216,"PopPlLat":32.7765656,"PopPlLong":-79.9309216,"ELEV_IN_M":3,"ELEV_IN_FT":10},"geometry":{"type":"Point","coordinates":[-79.93092159999998,32.77656560000008]}},{"type":"Feature","properties":{"GNIS_ID":1266887,"ANSICODE":"1267533","FEATURE":"Civil","FEATURE2":"State Capital County Seat","NAME":"Pierre","POP_2010":13646,"COUNTY":"Hughes","COUNTYFIPS":"065","STATE":"SD","STATE_FIPS":"46","LATITUDE":44.3683156,"LONGITUDE":-100.3509665,"PopPlLat":44.3683156,"PopPlLong":-100.3509665,"ELEV_IN_M":451,"ELEV_IN_FT":1480},"geometry":{"type":"Point","coordinates":[-100.3509665,44.36831560000013]}},{"type":"Feature","properties":{"GNIS_ID":1267670,"ANSICODE":"1267566","FEATURE":"Civil","FEATURE2":"County Seat","NAME":"Sioux Falls","POP_2010":153888,"COUNTY":"Minnehaha","COUNTYFIPS":"099","STATE":"SD","STATE_FIPS":"46","LATITUDE":43.5499749,"LONGITUDE":-96.700327,"PopPlLat":43.5499749,"PopPlLong":-96.700327,"ELEV_IN_M":449,"ELEV_IN_FT":1473},"geometry":{"type":"Point","coordinates":[-96.700327,43.54997490000005]}},{"type":"Feature","properties":{"GNIS_ID":1648562,"ANSICODE":"2404842","FEATURE":"Civil","FEATURE2":"County Seat","NAME":"Knoxville","POP_2010":178874,"COUNTY":"Knox","COUNTYFIPS":"093","STATE":"TN","STATE_FIPS":"47","LATITUDE":35.9606384,"LONGITUDE":-83.9207392,"PopPlLat":35.9606384,"PopPlLong":-83.9207392,"ELEV_IN_M":276,"ELEV_IN_FT":906},"geometry":{"type":"Point","coordinates":[-83.9207392,35.960638400000164]}},{"type":"Feature","properties":{"GNIS_ID":1307240,"ANSICODE":"2404035","FEATURE":"Civil","FEATURE2":"County Seat","NAME":"Chattanooga","POP_2010":167674,"COUNTY":"Hamilton","COUNTYFIPS":"065","STATE":"TN","STATE_FIPS":"47","LATITUDE":35.0456297,"LONGITUDE":-85.3096801,"PopPlLat":35.0456297,"PopPlLong":-85.3096801,"ELEV_IN_M":206,"ELEV_IN_FT":676},"geometry":{"type":"Point","coordinates":[-85.3096801,35.04562970000018]}},{"type":"Feature","properties":{"GNIS_ID":1326388,"ANSICODE":"2405068","FEATURE":"Civil","FEATURE2":"County Seat","NAME":"Memphis","POP_2010":646889,"COUNTY":"Shelby","COUNTYFIPS":"157","STATE":"TN","STATE_FIPS":"47","LATITUDE":35.1495343,"LONGITUDE":-90.0489801,"PopPlLat":35.1495343,"PopPlLong":-90.0489801,"ELEV_IN_M":79,"ELEV_IN_FT":259},"geometry":{"type":"Point","coordinates":[-90.04898009999994,35.14953430000003]}},{"type":"Feature","properties":{"GNIS_ID":1652484,"ANSICODE":"-999","FEATURE":"Populated Place","FEATURE2":"State Capital County Seat","NAME":"Nashville","POP_2010":601222,"COUNTY":"Davidson","COUNTYFIPS":"037","STATE":"TN","STATE_FIPS":"47","LATITUDE":36.1658899,"LONGITUDE":-86.7844432,"PopPlLat":36.1658899,"PopPlLong":-86.7844432,"ELEV_IN_M":173,"ELEV_IN_FT":568},"geometry":{"type":"Point","coordinates":[-86.78444319999994,36.16588990000008]}},{"type":"Feature","properties":{"GNIS_ID":1351066,"ANSICODE":"2409694","FEATURE":"Civil","FEATURE2":"County Seat","NAME":"Amarillo","POP_2010":190695,"COUNTY":"Potter","COUNTYFIPS":"375","STATE":"TX","STATE_FIPS":"48","LATITUDE":35.2219971,"LONGITUDE":-101.8312969,"PopPlLat":35.2219971,"PopPlLong":-101.8312969,"ELEV_IN_M":1118,"ELEV_IN_FT":3668},"geometry":{"type":"Point","coordinates":[-101.83129689999998,35.22199710000007]}},{"type":"Feature","properties":{"GNIS_ID":1372320,"ANSICODE":"2409731","FEATURE":"Civil","FEATURE2":"-999","NAME":"Arlington","POP_2010":365438,"COUNTY":"Tarrant","COUNTYFIPS":"439","STATE":"TX","STATE_FIPS":"48","LATITUDE":32.735687,"LONGITUDE":-97.1080656,"PopPlLat":32.735687,"PopPlLong":-97.1080656,"ELEV_IN_M":184,"ELEV_IN_FT":604},"geometry":{"type":"Point","coordinates":[-97.10806559999992,32.735687000000155]}},{"type":"Feature","properties":{"GNIS_ID":1338507,"ANSICODE":"2410117","FEATURE":"Civil","FEATURE2":"-999","NAME":"Irving","POP_2010":216290,"COUNTY":"Dallas","COUNTYFIPS":"113","STATE":"TX","STATE_FIPS":"48","LATITUDE":32.8140177,"LONGITUDE":-96.9488945,"PopPlLat":32.8140177,"PopPlLong":-96.9488945,"ELEV_IN_M":147,"ELEV_IN_FT":482},"geometry":{"type":"Point","coordinates":[-96.94889449999988,32.81401770000008]}},{"type":"Feature","properties":{"GNIS_ID":1380944,"ANSICODE":"2410288","FEATURE":"Civil","FEATURE2":"County Seat","NAME":"Dallas","POP_2010":1197816,"COUNTY":"Dallas","COUNTYFIPS":"113","STATE":"TX","STATE_FIPS":"48","LATITUDE":32.7830556,"LONGITUDE":-96.8066667,"PopPlLat":32.7830556,"PopPlLong":-96.8066667,"ELEV_IN_M":128,"ELEV_IN_FT":420},"geometry":{"type":"Point","coordinates":[-96.80666669999988,32.783055600000125]}},{"type":"Feature","properties":{"GNIS_ID":1384879,"ANSICODE":"2409761","FEATURE":"Civil","FEATURE2":"State Capital County Seat","NAME":"Austin","POP_2010":790390,"COUNTY":"Travis","COUNTYFIPS":"453","STATE":"TX","STATE_FIPS":"48","LATITUDE":30.267153,"LONGITUDE":-97.7430608,"PopPlLat":30.267153,"PopPlLong":-97.7430608,"ELEV_IN_M":149,"ELEV_IN_FT":489},"geometry":{"type":"Point","coordinates":[-97.7430608,30.267153]}},{"type":"Feature","properties":{"GNIS_ID":1333380,"ANSICODE":"2410234","FEATURE":"Civil","FEATURE2":"County Seat","NAME":"Corpus Christi","POP_2010":305215,"COUNTY":"Nueces","COUNTYFIPS":"355","STATE":"TX","STATE_FIPS":"48","LATITUDE":27.8005828,"LONGITUDE":-97.396381,"PopPlLat":27.8005828,"PopPlLong":-97.396381,"ELEV_IN_M":2,"ELEV_IN_FT":7},"geometry":{"type":"Point","coordinates":[-97.396381,27.80058280000003]}},{"type":"Feature","properties":{"GNIS_ID":1372749,"ANSICODE":"2409924","FEATURE":"Civil","FEATURE2":"County Seat","NAME":"Brownsville","POP_2010":175023,"COUNTY":"Cameron","COUNTYFIPS":"061","STATE":"TX","STATE_FIPS":"48","LATITUDE":25.9017472,"LONGITUDE":-97.4974838,"PopPlLat":25.9017472,"PopPlLong":-97.4974838,"ELEV_IN_M":10,"ELEV_IN_FT":33},"geometry":{"type":"Point","coordinates":[-97.49748379999994,25.901747200000045]}},{"type":"Feature","properties":{"GNIS_ID":1374760,"ANSICODE":"2410892","FEATURE":"Civil","FEATURE2":"County Seat","NAME":"Lubbock","POP_2010":229573,"COUNTY":"Lubbock","COUNTYFIPS":"303","STATE":"TX","STATE_FIPS":"48","LATITUDE":33.5778631,"LONGITUDE":-101.8551665,"PopPlLat":33.5778631,"PopPlLong":-101.8551665,"ELEV_IN_M":976,"ELEV_IN_FT":3202},"geometry":{"type":"Point","coordinates":[-101.85516649999988,33.57786310000006]}},{"type":"Feature","properties":{"GNIS_ID":1344166,"ANSICODE":"2411437","FEATURE":"Civil","FEATURE2":"-999","NAME":"Plano","POP_2010":259841,"COUNTY":"Collin","COUNTYFIPS":"085","STATE":"TX","STATE_FIPS":"48","LATITUDE":33.0198431,"LONGITUDE":-96.6988856,"PopPlLat":33.0198431,"PopPlLong":-96.6988856,"ELEV_IN_M":203,"ELEV_IN_FT":666},"geometry":{"type":"Point","coordinates":[-96.69888559999998,33.01984310000017]}},{"type":"Feature","properties":{"GNIS_ID":1380947,"ANSICODE":"2410531","FEATURE":"Civil","FEATURE2":"County Seat","NAME":"Fort Worth","POP_2010":741206,"COUNTY":"Tarrant","COUNTYFIPS":"439","STATE":"TX","STATE_FIPS":"48","LATITUDE":32.725409,"LONGITUDE":-97.3208496,"PopPlLat":32.725409,"PopPlLong":-97.3208496,"ELEV_IN_M":199,"ELEV_IN_FT":653},"geometry":{"type":"Point","coordinates":[-97.32084959999992,32.725409]}},{"type":"Feature","properties":{"GNIS_ID":1388185,"ANSICODE":"2410572","FEATURE":"Civil","FEATURE2":"-999","NAME":"Garland","POP_2010":226876,"COUNTY":"Dallas","COUNTYFIPS":"113","STATE":"TX","STATE_FIPS":"48","LATITUDE":32.912624,"LONGITUDE":-96.6388833,"PopPlLat":32.912624,"PopPlLong":-96.6388833,"ELEV_IN_M":168,"ELEV_IN_FT":551},"geometry":{"type":"Point","coordinates":[-96.63888329999992,32.912624000000164]}},{"type":"Feature","properties":{"GNIS_ID":1336802,"ANSICODE":"2410632","FEATURE":"Civil","FEATURE2":"-999","NAME":"Grand Prairie","POP_2010":175396,"COUNTY":"Dallas","COUNTYFIPS":"113","STATE":"TX","STATE_FIPS":"48","LATITUDE":32.7459645,"LONGITUDE":-96.9977846,"PopPlLat":32.7459645,"PopPlLong":-96.9977846,"ELEV_IN_M":157,"ELEV_IN_FT":515},"geometry":{"type":"Point","coordinates":[-96.99778459999993,32.745964500000184]}},{"type":"Feature","properties":{"GNIS_ID":1380946,"ANSICODE":"2410414","FEATURE":"Civil","FEATURE2":"County Seat","NAME":"El Paso","POP_2010":649121,"COUNTY":"El Paso","COUNTYFIPS":"141","STATE":"TX","STATE_FIPS":"48","LATITUDE":31.7587198,"LONGITUDE":-106.4869314,"PopPlLat":31.7587198,"PopPlLong":-106.4869314,"ELEV_IN_M":1133,"ELEV_IN_FT":3717},"geometry":{"type":"Point","coordinates":[-106.48693139999995,31.75871980000005]}},{"type":"Feature","properties":{"GNIS_ID":1380948,"ANSICODE":"2410796","FEATURE":"Civil","FEATURE2":"County Seat","NAME":"Houston","POP_2010":2099451,"COUNTY":"Harris","COUNTYFIPS":"201","STATE":"TX","STATE_FIPS":"48","LATITUDE":29.7632836,"LONGITUDE":-95.3632715,"PopPlLat":29.7632836,"PopPlLong":-95.3632715,"ELEV_IN_M":11,"ELEV_IN_FT":36},"geometry":{"type":"Point","coordinates":[-95.36327149999988,29.76328360000008]}},{"type":"Feature","properties":{"GNIS_ID":1339633,"ANSICODE":"2411626","FEATURE":"Civil","FEATURE2":"County Seat","NAME":"Laredo","POP_2010":236091,"COUNTY":"Webb","COUNTYFIPS":"479","STATE":"TX","STATE_FIPS":"48","LATITUDE":27.506407,"LONGITUDE":-99.5075421,"PopPlLat":27.506407,"PopPlLong":-99.5075421,"ELEV_IN_M":126,"ELEV_IN_FT":413},"geometry":{"type":"Point","coordinates":[-99.50754209999997,27.506407000000138]}},{"type":"Feature","properties":{"GNIS_ID":1380951,"ANSICODE":"2411774","FEATURE":"Civil","FEATURE2":"County Seat","NAME":"San Antonio","POP_2010":1327407,"COUNTY":"Bexar","COUNTYFIPS":"029","STATE":"TX","STATE_FIPS":"48","LATITUDE":29.4241219,"LONGITUDE":-98.4936282,"PopPlLat":29.4241219,"PopPlLong":-98.4936282,"ELEV_IN_M":198,"ELEV_IN_FT":650},"geometry":{"type":"Point","coordinates":[-98.49362819999999,29.424121900000046]}},{"type":"Feature","properties":{"GNIS_ID":1454997,"ANSICODE":"2411771","FEATURE":"Civil","FEATURE2":"State Capital County Seat","NAME":"Salt Lake City","POP_2010":186440,"COUNTY":"Salt Lake","COUNTYFIPS":"035","STATE":"UT","STATE_FIPS":"49","LATITUDE":40.7607794,"LONGITUDE":-111.8910474,"PopPlLat":40.7607794,"PopPlLong":-111.8910474,"ELEV_IN_M":1300,"ELEV_IN_FT":4265},"geometry":{"type":"Point","coordinates":[-111.89104739999993,40.760779400000104]}},{"type":"Feature","properties":{"GNIS_ID":1461834,"ANSICODE":"1462152","FEATURE":"Civil","FEATURE2":"State Capital County Seat","NAME":"Montpelier","POP_2010":7855,"COUNTY":"Washington","COUNTYFIPS":"023","STATE":"VT","STATE_FIPS":"50","LATITUDE":44.2600593,"LONGITUDE":-72.5753869,"PopPlLat":44.2600593,"PopPlLong":-72.5753869,"ELEV_IN_M":160,"ELEV_IN_FT":525},"geometry":{"type":"Point","coordinates":[-72.57538689999996,44.26005930000008]}},{"type":"Feature","properties":{"GNIS_ID":1456663,"ANSICODE":"1462060","FEATURE":"Civil","FEATURE2":"County Seat","NAME":"Burlington","POP_2010":42417,"COUNTY":"Chittenden","COUNTYFIPS":"007","STATE":"VT","STATE_FIPS":"50","LATITUDE":44.4758825,"LONGITUDE":-73.212072,"PopPlLat":44.4758825,"PopPlLong":-73.212072,"ELEV_IN_M":60,"ELEV_IN_FT":197},"geometry":{"type":"Point","coordinates":[-73.212072,44.47588250000018]}},{"type":"Feature","properties":{"GNIS_ID":1499957,"ANSICODE":"1789073","FEATURE":"Civil","FEATURE2":"State Capital County Seat","NAME":"Richmond","POP_2010":204214,"COUNTY":"Richmond (city)","COUNTYFIPS":"760","STATE":"VA","STATE_FIPS":"51","LATITUDE":37.5537575,"LONGITUDE":-77.4602617,"PopPlLat":37.5537575,"PopPlLong":-77.4602617,"ELEV_IN_M":64,"ELEV_IN_FT":210},"geometry":{"type":"Point","coordinates":[-77.4602617,37.55375750000019]}},{"type":"Feature","properties":{"GNIS_ID":1497043,"ANSICODE":"1498555","FEATURE":"Civil","FEATURE2":"County Seat","NAME":"Newport News","POP_2010":180719,"COUNTY":"Newport News (city)","COUNTYFIPS":"700","STATE":"VA","STATE_FIPS":"51","LATITUDE":36.9787588,"LONGITUDE":-76.428003,"PopPlLat":36.9787588,"PopPlLong":-76.428003,"ELEV_IN_M":6,"ELEV_IN_FT":20},"geometry":{"type":"Point","coordinates":[-76.428003,36.97875880000004]}},{"type":"Feature","properties":{"GNIS_ID":1497051,"ANSICODE":"1498557","FEATURE":"Civil","FEATURE2":"County Seat","NAME":"Norfolk","POP_2010":242803,"COUNTY":"Norfolk (city)","COUNTYFIPS":"710","STATE":"VA","STATE_FIPS":"51","LATITUDE":36.8468146,"LONGITUDE":-76.2852183,"PopPlLat":36.8468146,"PopPlLong":-76.2852183,"ELEV_IN_M":3,"ELEV_IN_FT":10},"geometry":{"type":"Point","coordinates":[-76.2852183,36.846814600000016]}},{"type":"Feature","properties":{"GNIS_ID":1500261,"ANSICODE":"1498559","FEATURE":"Civil","FEATURE2":"County Seat","NAME":"Virginia Beach","POP_2010":437994,"COUNTY":"Virginia Beach (city)","COUNTYFIPS":"810","STATE":"VA","STATE_FIPS":"51","LATITUDE":36.8529263,"LONGITUDE":-75.977985,"PopPlLat":36.8529263,"PopPlLong":-75.977985,"ELEV_IN_M":3,"ELEV_IN_FT":10},"geometry":{"type":"Point","coordinates":[-75.977985,36.85292630000015]}},{"type":"Feature","properties":{"GNIS_ID":1496841,"ANSICODE":"1498558","FEATURE":"Civil","FEATURE2":"County Seat","NAME":"Chesapeake","POP_2010":222209,"COUNTY":"Chesapeake (city)","COUNTYFIPS":"550","STATE":"VA","STATE_FIPS":"51","LATITUDE":36.8190369,"LONGITUDE":-76.2749399,"PopPlLat":36.8190369,"PopPlLong":-76.2749399,"ELEV_IN_M":3,"ELEV_IN_FT":10},"geometry":{"type":"Point","coordinates":[-76.27493989999994,36.81903690000013]}},{"type":"Feature","properties":{"GNIS_ID":1783506,"ANSICODE":"2389148","FEATURE":"Census","FEATURE2":"County Seat","NAME":"Arlington","POP_2010":207627,"COUNTY":"Arlington","COUNTYFIPS":"013","STATE":"VA","STATE_FIPS":"51","LATITUDE":38.8903896,"LONGITUDE":-77.0841446,"PopPlLat":38.8903896,"PopPlLong":-77.0841446,"ELEV_IN_M":71,"ELEV_IN_FT":233},"geometry":{"type":"Point","coordinates":[-77.08414459999989,38.890389600000105]}},{"type":"Feature","properties":{"GNIS_ID":1533353,"ANSICODE":"2411318","FEATURE":"Civil","FEATURE2":"State Capital County Seat","NAME":"Olympia","POP_2010":46478,"COUNTY":"Thurston","COUNTYFIPS":"067","STATE":"WA","STATE_FIPS":"53","LATITUDE":47.0378741,"LONGITUDE":-122.9006951,"PopPlLat":47.0378741,"PopPlLong":-122.9006951,"ELEV_IN_M":28,"ELEV_IN_FT":92},"geometry":{"type":"Point","coordinates":[-122.9006951,47.03787410000018]}},{"type":"Feature","properties":{"GNIS_ID":1512683,"ANSICODE":"2411956","FEATURE":"Civil","FEATURE2":"County Seat","NAME":"Spokane","POP_2010":208916,"COUNTY":"Spokane","COUNTYFIPS":"063","STATE":"WA","STATE_FIPS":"53","LATITUDE":47.6587803,"LONGITUDE":-117.4260466,"PopPlLat":47.6587803,"PopPlLong":-117.4260466,"ELEV_IN_M":572,"ELEV_IN_FT":1877},"geometry":{"type":"Point","coordinates":[-117.4260466,47.65878030000016]}},{"type":"Feature","properties":{"GNIS_ID":1512650,"ANSICODE":"2411856","FEATURE":"Civil","FEATURE2":"County Seat","NAME":"Seattle","POP_2010":608660,"COUNTY":"King","COUNTYFIPS":"033","STATE":"WA","STATE_FIPS":"53","LATITUDE":47.6062095,"LONGITUDE":-122.3320708,"PopPlLat":47.6062095,"PopPlLong":-122.3320708,"ELEV_IN_M":54,"ELEV_IN_FT":177},"geometry":{"type":"Point","coordinates":[-122.33207079999988,47.606209500000034]}},{"type":"Feature","properties":{"GNIS_ID":1512713,"ANSICODE":"2412025","FEATURE":"Civil","FEATURE2":"County Seat","NAME":"Tacoma","POP_2010":198397,"COUNTY":"Pierce","COUNTYFIPS":"053","STATE":"WA","STATE_FIPS":"53","LATITUDE":47.2528769,"LONGITUDE":-122.4442906,"PopPlLat":47.2528769,"PopPlLong":-122.4442906,"ELEV_IN_M":76,"ELEV_IN_FT":249},"geometry":{"type":"Point","coordinates":[-122.44429059999999,47.2528769000001]}},{"type":"Feature","properties":{"GNIS_ID":1531916,"ANSICODE":"2412146","FEATURE":"Civil","FEATURE2":"County Seat","NAME":"Vancouver","POP_2010":161791,"COUNTY":"Clark","COUNTYFIPS":"011","STATE":"WA","STATE_FIPS":"53","LATITUDE":45.6387281,"LONGITUDE":-122.6614861,"PopPlLat":45.6387281,"PopPlLong":-122.6614861,"ELEV_IN_M":56,"ELEV_IN_FT":184},"geometry":{"type":"Point","coordinates":[-122.66148609999993,45.63872810000004]}},{"type":"Feature","properties":{"GNIS_ID":1558347,"ANSICODE":"2390575","FEATURE":"Civil","FEATURE2":"State Capital County Seat","NAME":"Charleston","POP_2010":51400,"COUNTY":"Kanawha","COUNTYFIPS":"039","STATE":"WV","STATE_FIPS":"54","LATITUDE":38.3498195,"LONGITUDE":-81.6326235,"PopPlLat":38.3498195,"PopPlLong":-81.6326235,"ELEV_IN_M":182,"ELEV_IN_FT":597},"geometry":{"type":"Point","coordinates":[-81.63262349999997,38.349819500000194]}},{"type":"Feature","properties":{"GNIS_ID":1581834,"ANSICODE":"1583625","FEATURE":"Civil","FEATURE2":"State Capital County Seat","NAME":"Madison","POP_2010":233209,"COUNTY":"Dane","COUNTYFIPS":"025","STATE":"WI","STATE_FIPS":"55","LATITUDE":43.0730517,"LONGITUDE":-89.4012302,"PopPlLat":43.0730517,"PopPlLong":-89.4012302,"ELEV_IN_M":266,"ELEV_IN_FT":873},"geometry":{"type":"Point","coordinates":[-89.40123019999999,43.07305170000012]}},{"type":"Feature","properties":{"GNIS_ID":1577901,"ANSICODE":"1583724","FEATURE":"Civil","FEATURE2":"County Seat","NAME":"Milwaukee","POP_2010":594833,"COUNTY":"Milwaukee","COUNTYFIPS":"079","STATE":"WI","STATE_FIPS":"55","LATITUDE":43.0389025,"LONGITUDE":-87.9064736,"PopPlLat":43.0389025,"PopPlLong":-87.9064736,"ELEV_IN_M":187,"ELEV_IN_FT":614},"geometry":{"type":"Point","coordinates":[-87.9064736,43.03890250000006]}},{"type":"Feature","properties":{"GNIS_ID":1609077,"ANSICODE":"2409445","FEATURE":"Civil","FEATURE2":"State Capital County Seat","NAME":"Cheyenne","POP_2010":59466,"COUNTY":"Laramie","COUNTYFIPS":"021","STATE":"WY","STATE_FIPS":"56","LATITUDE":41.1399814,"LONGITUDE":-104.8202462,"PopPlLat":41.1399814,"PopPlLong":-104.8202462,"ELEV_IN_M":1855,"ELEV_IN_FT":6086},"geometry":{"type":"Point","coordinates":[-104.82024619999993,41.13998140000018]}},{"type":"Feature","properties":{"GNIS_ID":1586424,"ANSICODE":"2409406","FEATURE":"Civil","FEATURE2":"County Seat","NAME":"Casper","POP_2010":55316,"COUNTY":"Natrona","COUNTYFIPS":"025","STATE":"WY","STATE_FIPS":"56","LATITUDE":42.8433116998,"LONGITUDE":-106.327324537,"PopPlLat":42.866632,"PopPlLong":-106.313081,"ELEV_IN_M":1556,"ELEV_IN_FT":5105},"geometry":{"type":"Point","coordinates":[-106.32732453665426,42.84331169979141]}}]}