{
"type": "FeatureCollection",
"name": "cities-over-150k",
"crs": { "type": "name", "properties": { "name": "urn:ogc:def:crs:EPSG::4269" } },
"features": [
{ "type": "Feature", "properties": { "GNIS_ID": 1351066.0, "ANSICODE": "2409694", "FEATURE": "Civil", "FEATURE2": "County Seat", "NAME": "Amarillo", "POP_2010": 190695.0, "COUNTY": "Potter", "COUNTYFIPS": "375", "STATE": "TX", "STATE_FIPS": "48", "LATITUDE": 35.2219971, "LONGITUDE": -101.8312969, "PopPlLat": 35.2219971, "PopPlLong": -101.8312969, "ELEV_IN_M": 1118.0, "ELEV_IN_FT": 3668.0 }, "geometry": { "type": "Point", "coordinates": [ -101.831296899999984, 35.221997100000067 ] } },
{ "type": "Feature", "properties": { "GNIS_ID": 1372320.0, "ANSICODE": "2409731", "FEATURE": "Civil", "FEATURE2": "-999", "NAME": "Arlington", "POP_2010": 365438.0, "COUNTY": "Tarrant", "COUNTYFIPS": "439", "STATE": "TX", "STATE_FIPS": "48", "LATITUDE": 32.735687, "LONGITUDE": -97.1080656, "PopPlLat": 32.735687, "PopPlLong": -97.1080656, "ELEV_IN_M": 184.0, "ELEV_IN_FT": 604.0 }, "geometry": { "type": "Point", "coordinates": [ -97.108065599999918, 32.735687000000155 ] } },
{ "type": "Feature", "properties": { "GNIS_ID": 1338507.0, "ANSICODE": "2410117", "FEATURE": "Civil", "FEATURE2": "-999", "NAME": "Irving", "POP_2010": 216290.0, "COUNTY": "Dallas", "COUNTYFIPS": "113", "STATE": "TX", "STATE_FIPS": "48", "LATITUDE": 32.8140177, "LONGITUDE": -96.9488945, "PopPlLat": 32.8140177, "PopPlLong": -96.9488945, "ELEV_IN_M": 147.0, "ELEV_IN_FT": 482.0 }, "geometry": { "type": "Point", "coordinates": [ -96.948894499999881, 32.814017700000079 ] } },
{ "type": "Feature", "properties": { "GNIS_ID": 1380944.0, "ANSICODE": "2410288", "FEATURE": "Civil", "FEATURE2": "County Seat", "NAME": "Dallas", "POP_2010": 1197816.0, "COUNTY": "Dallas", "COUNTYFIPS": "113", "STATE": "TX", "STATE_FIPS": "48", "LATITUDE": 32.7830556, "LONGITUDE": -96.8066667, "PopPlLat": 32.7830556, "PopPlLong": -96.8066667, "ELEV_IN_M": 128.0, "ELEV_IN_FT": 420.0 }, "geometry": { "type": "Point", "coordinates": [ -96.80666669999988, 32.783055600000125 ] } },
{ "type": "Feature", "properties": { "GNIS_ID": 1384879.0, "ANSICODE": "2409761", "FEATURE": "Civil", "FEATURE2": "State Capital County Seat", "NAME": "Austin", "POP_2010": 790390.0, "COUNTY": "Travis", "COUNTYFIPS": "453", "STATE": "TX", "STATE_FIPS": "48", "LATITUDE": 30.267153, "LONGITUDE": -97.7430608, "PopPlLat": 30.267153, "PopPlLong": -97.7430608, "ELEV_IN_M": 149.0, "ELEV_IN_FT": 489.0 }, "geometry": { "type": "Point", "coordinates": [ -97.7430608, 30.267153 ] } },
{ "type": "Feature", "properties": { "GNIS_ID": 1333380.0, "ANSICODE": "2410234", "FEATURE": "Civil", "FEATURE2": "County Seat", "NAME": "Corpus Christi", "POP_2010": 305215.0, "COUNTY": "Nueces", "COUNTYFIPS": "355", "STATE": "TX", "STATE_FIPS": "48", "LATITUDE": 27.8005828, "LONGITUDE": -97.396381, "PopPlLat": 27.8005828, "PopPlLong": -97.396381, "ELEV_IN_M": 2.0, "ELEV_IN_FT": 7.0 }, "geometry": { "type": "Point", "coordinates": [ -97.396381, 27.800582800000029 ] } },
{ "type": "Feature", "properties": { "GNIS_ID": 1372749.0, "ANSICODE": "2409924", "FEATURE": "Civil", "FEATURE2": "County Seat", "NAME": "Brownsville", "POP_2010": 175023.0, "COUNTY": "Cameron", "COUNTYFIPS": "061", "STATE": "TX", "STATE_FIPS": "48", "LATITUDE": 25.9017472, "LONGITUDE": -97.4974838, "PopPlLat": 25.9017472, "PopPlLong": -97.4974838, "ELEV_IN_M": 10.0, "ELEV_IN_FT": 33.0 }, "geometry": { "type": "Point", "coordinates": [ -97.497483799999941, 25.901747200000045 ] } },
{ "type": "Feature", "properties": { "GNIS_ID": 1374760.0, "ANSICODE": "2410892", "FEATURE": "Civil", "FEATURE2": "County Seat", "NAME": "Lubbock", "POP_2010": 229573.0, "COUNTY": "Lubbock", "COUNTYFIPS": "303", "STATE": "TX", "STATE_FIPS": "48", "LATITUDE": 33.5778631, "LONGITUDE": -101.8551665, "PopPlLat": 33.5778631, "PopPlLong": -101.8551665, "ELEV_IN_M": 976.0, "ELEV_IN_FT": 3202.0 }, "geometry": { "type": "Point", "coordinates": [ -101.855166499999882, 33.577863100000059 ] } },
{ "type": "Feature", "properties": { "GNIS_ID": 1344166.0, "ANSICODE": "2411437", "FEATURE": "Civil", "FEATURE2": "-999", "NAME": "Plano", "POP_2010": 259841.0, "COUNTY": "Collin", "COUNTYFIPS": "085", "STATE": "TX", "STATE_FIPS": "48", "LATITUDE": 33.0198431, "LONGITUDE": -96.6988856, "PopPlLat": 33.0198431, "PopPlLong": -96.6988856, "ELEV_IN_M": 203.0, "ELEV_IN_FT": 666.0 }, "geometry": { "type": "Point", "coordinates": [ -96.698885599999983, 33.019843100000173 ] } },
{ "type": "Feature", "properties": { "GNIS_ID": 1380947.0, "ANSICODE": "2410531", "FEATURE": "Civil", "FEATURE2": "County Seat", "NAME": "Fort Worth", "POP_2010": 741206.0, "COUNTY": "Tarrant", "COUNTYFIPS": "439", "STATE": "TX", "STATE_FIPS": "48", "LATITUDE": 32.725409, "LONGITUDE": -97.3208496, "PopPlLat": 32.725409, "PopPlLong": -97.3208496, "ELEV_IN_M": 199.0, "ELEV_IN_FT": 653.0 }, "geometry": { "type": "Point", "coordinates": [ -97.320849599999917, 32.725409 ] } },
{ "type": "Feature", "properties": { "GNIS_ID": 1388185.0, "ANSICODE": "2410572", "FEATURE": "Civil", "FEATURE2": "-999", "NAME": "Garland", "POP_2010": 226876.0, "COUNTY": "Dallas", "COUNTYFIPS": "113", "STATE": "TX", "STATE_FIPS": "48", "LATITUDE": 32.912624, "LONGITUDE": -96.6388833, "PopPlLat": 32.912624, "PopPlLong": -96.6388833, "ELEV_IN_M": 168.0, "ELEV_IN_FT": 551.0 }, "geometry": { "type": "Point", "coordinates": [ -96.638883299999918, 32.912624000000164 ] } },
{ "type": "Feature", "properties": { "GNIS_ID": 1336802.0, "ANSICODE": "2410632", "FEATURE": "Civil", "FEATURE2": "-999", "NAME": "Grand Prairie", "POP_2010": 175396.0, "COUNTY": "Dallas", "COUNTYFIPS": "113", "STATE": "TX", "STATE_FIPS": "48", "LATITUDE": 32.7459645, "LONGITUDE": -96.9977846, "PopPlLat": 32.7459645, "PopPlLong": -96.9977846, "ELEV_IN_M": 157.0, "ELEV_IN_FT": 515.0 }, "geometry": { "type": "Point", "coordinates": [ -96.997784599999932, 32.745964500000184 ] } },
{ "type": "Feature", "properties": { "GNIS_ID": 1380946.0, "ANSICODE": "2410414", "FEATURE": "Civil", "FEATURE2": "County Seat", "NAME": "El Paso", "POP_2010": 649121.0, "COUNTY": "El Paso", "COUNTYFIPS": "141", "STATE": "TX", "STATE_FIPS": "48", "LATITUDE": 31.7587198, "LONGITUDE": -106.4869314, "PopPlLat": 31.7587198, "PopPlLong": -106.4869314, "ELEV_IN_M": 1133.0, "ELEV_IN_FT": 3717.0 }, "geometry": { "type": "Point", "coordinates": [ -106.486931399999946, 31.758719800000051 ] } },
{ "type": "Feature", "properties": { "GNIS_ID": 1380948.0, "ANSICODE": "2410796", "FEATURE": "Civil", "FEATURE2": "County Seat", "NAME": "Houston", "POP_2010": 2099451.0, "COUNTY": "Harris", "COUNTYFIPS": "201", "STATE": "TX", "STATE_FIPS": "48", "LATITUDE": 29.7632836, "LONGITUDE": -95.3632715, "PopPlLat": 29.7632836, "PopPlLong": -95.3632715, "ELEV_IN_M": 11.0, "ELEV_IN_FT": 36.0 }, "geometry": { "type": "Point", "coordinates": [ -95.363271499999883, 29.763283600000079 ] } },
{ "type": "Feature", "properties": { "GNIS_ID": 1339633.0, "ANSICODE": "2411626", "FEATURE": "Civil", "FEATURE2": "County Seat", "NAME": "Laredo", "POP_2010": 236091.0, "COUNTY": "Webb", "COUNTYFIPS": "479", "STATE": "TX", "STATE_FIPS": "48", "LATITUDE": 27.506407, "LONGITUDE": -99.5075421, "PopPlLat": 27.506407, "PopPlLong": -99.5075421, "ELEV_IN_M": 126.0, "ELEV_IN_FT": 413.0 }, "geometry": { "type": "Point", "coordinates": [ -99.507542099999966, 27.506407000000138 ] } },
{ "type": "Feature", "properties": { "GNIS_ID": 1380951.0, "ANSICODE": "2411774", "FEATURE": "Civil", "FEATURE2": "County Seat", "NAME": "San Antonio", "POP_2010": 1327407.0, "COUNTY": "Bexar", "COUNTYFIPS": "029", "STATE": "TX", "STATE_FIPS": "48", "LATITUDE": 29.4241219, "LONGITUDE": -98.4936282, "PopPlLat": 29.4241219, "PopPlLong": -98.4936282, "ELEV_IN_M": 198.0, "ELEV_IN_FT": 650.0 }, "geometry": { "type": "Point", "coordinates": [ -98.493628199999989, 29.424121900000046 ] } }
]
}
