{
"type": "FeatureCollection",
"name": "cities-over-150k",
"crs": { "type": "name", "properties": { "name": "urn:ogc:def:crs:EPSG::4269" } },
"features": [
{ "type": "Feature", "properties": { "GNIS_ID": 1652668.0, "ANSICODE": "2409774", "FEATURE": "Civil", "FEATURE2": "County Seat", "NAME": "Bakersfield", "POP_2010": 347483.0, "COUNTY": "Kern", "COUNTYFIPS": "029", "STATE": "CA", "STATE_FIPS": "06", "LATITUDE": 35.3732921, "LONGITUDE": -119.0187125, "PopPlLat": 35.3732921, "PopPlLong": -119.0187125, "ELEV_IN_M": 123.0, "ELEV_IN_FT": 404.0 }, "geometry": { "type": "Point", "coordinates": [ -119.0187125, 35.373292100000128 ] } },
{ "type": "Feature", "properties": { "GNIS_ID": 1652691.0, "ANSICODE": "2410232", "FEATURE": "Civil", "FEATURE2": "-999", "NAME": "Corona", "POP_2010": 152374.0, "COUNTY": "Riverside", "COUNTYFIPS": "065", "STATE": "CA", "STATE_FIPS": "06", "LATITUDE": 33.8752935, "LONGITUDE": -117.5664384, "PopPlLat": 33.8752935, "PopPlLong": -117.5664384, "ELEV_IN_M": 207.0, "ELEV_IN_FT": 679.0 }, "geometry": { "type": "Point", "coordinates": [ -117.566438399999981, 33.875293500000112 ] } },
{ "type": "Feature", "properties": { "GNIS_ID": 1652663.0, "ANSICODE": "2409704", "FEATURE": "Civil", "FEATURE2": "-999", "NAME": "Anaheim", "POP_2010": 336265.0, "COUNTY": "Orange", "COUNTYFIPS": "059", "STATE": "CA", "STATE_FIPS": "06", "LATITUDE": 33.8352932, "LONGITUDE": -117.9145036, "PopPlLat": 33.8352932, "PopPlLong": -117.9145036, "ELEV_IN_M": 48.0, "ELEV_IN_FT": 157.0 }, "geometry": { "type": "Point", "coordinates": [ -117.914503599999989, 33.835293200000024 ] } },
{ "type": "Feature", "properties": { "GNIS_ID": 1660804.0, "ANSICODE": "2410116", "FEATURE": "Civil", "FEATURE2": "-999", "NAME": "Irvine", "POP_2010": 212375.0, "COUNTY": "Orange", "COUNTYFIPS": "059", "STATE": "CA", "STATE_FIPS": "06", "LATITUDE": 33.6694649, "LONGITUDE": -117.8231107, "PopPlLat": 33.6694649, "PopPlLong": -117.8231107, "ELEV_IN_M": 17.0, "ELEV_IN_FT": 56.0 }, "geometry": { "type": "Point", "coordinates": [ -117.823110699999972, 33.669464900000094 ] } },
{ "type": "Feature", "properties": { "GNIS_ID": 1660481.0, "ANSICODE": "2409461", "FEATURE": "Civil", "FEATURE2": "-999", "NAME": "Chula Vista", "POP_2010": 243916.0, "COUNTY": "San Diego", "COUNTYFIPS": "073", "STATE": "CA", "STATE_FIPS": "06", "LATITUDE": 32.6400541, "LONGITUDE": -117.0841955, "PopPlLat": 32.6400541, "PopPlLong": -117.0841955, "ELEV_IN_M": 20.0, "ELEV_IN_FT": 66.0 }, "geometry": { "type": "Point", "coordinates": [ -117.084195499999964, 32.640054100000043 ] } },
{ "type": "Feature", "properties": { "GNIS_ID": 277506.0, "ANSICODE": "2410425", "FEATURE": "Civil", "FEATURE2": "-999", "NAME": "Elk Grove", "POP_2010": 153015.0, "COUNTY": "Sacramento", "COUNTYFIPS": "067", "STATE": "CA", "STATE_FIPS": "06", "LATITUDE": 38.4087993, "LONGITUDE": -121.3716178, "PopPlLat": 38.4087993, "PopPlLong": -121.3716178, "ELEV_IN_M": 14.0, "ELEV_IN_FT": 46.0 }, "geometry": { "type": "Point", "coordinates": [ -121.371617799999967, 38.408799300000055 ] } },
{ "type": "Feature", "properties": { "GNIS_ID": 277609.0, "ANSICODE": "2411130", "FEATURE": "Civil", "FEATURE2": "County Seat", "NAME": "Modesto", "POP_2010": 201165.0, "COUNTY": "Stanislaus", "COUNTYFIPS": "099", "STATE": "CA", "STATE_FIPS": "06", "LATITUDE": 37.6390972, "LONGITUDE": -120.9968782, "PopPlLat": 37.6390972, "PopPlLong": -120.9968782, "ELEV_IN_M": 27.0, "ELEV_IN_FT": 89.0 }, "geometry": { "type": "Point", "coordinates": [ -120.996878199999912, 37.639097199999981 ] } },
{ "type": "Feature", "properties": { "GNIS_ID": 277521.0, "ANSICODE": "2410545", "FEATURE": "Civil", "FEATURE2": "-999", "NAME": "Fremont", "POP_2010": 214089.0, "COUNTY": "Alameda", "COUNTYFIPS": "001", "STATE": "CA", "STATE_FIPS": "06", "LATITUDE": 37.5482697, "LONGITUDE": -121.9885719, "PopPlLat": 37.5482697, "PopPlLong": -121.9885719, "ELEV_IN_M": 17.0, "ELEV_IN_FT": 56.0 }, "geometry": { "type": "Point", "coordinates": [ -121.988571899999897, 37.548269700000162 ] } },
{ "type": "Feature", "properties": { "GNIS_ID": 277566.0, "ANSICODE": "2411292", "FEATURE": "Civil", "FEATURE2": "County Seat", "NAME": "Oakland", "POP_2010": 390724.0, "COUNTY": "Alameda", "COUNTYFIPS": "001", "STATE": "CA", "STATE_FIPS": "06", "LATITUDE": 37.8043722, "LONGITUDE": -122.2708026, "PopPlLat": 37.8043722, "PopPlLong": -122.2708026, "ELEV_IN_M": 13.0, "ELEV_IN_FT": 43.0 }, "geometry": { "type": "Point", "coordinates": [ -122.270802599999968, 37.804372200000159 ] } },
{ "type": "Feature", "properties": { "GNIS_ID": 277606.0, "ANSICODE": "2410546", "FEATURE": "Civil", "FEATURE2": "County Seat", "NAME": "Fresno", "POP_2010": 494665.0, "COUNTY": "Fresno", "COUNTYFIPS": "019", "STATE": "CA", "STATE_FIPS": "06", "LATITUDE": 36.7477272, "LONGITUDE": -119.7723661, "PopPlLat": 36.7477272, "PopPlLong": -119.7723661, "ELEV_IN_M": 94.0, "ELEV_IN_FT": 308.0 }, "geometry": { "type": "Point", "coordinates": [ -119.772366099999886, 36.747727200000099 ] } },
{ "type": "Feature", "properties": { "GNIS_ID": 1652711.0, "ANSICODE": "2410517", "FEATURE": "Civil", "FEATURE2": "-999", "NAME": "Fontana", "POP_2010": 196069.0, "COUNTY": "San Bernardino", "COUNTYFIPS": "071", "STATE": "CA", "STATE_FIPS": "06", "LATITUDE": 34.0922335, "LONGITUDE": -117.435048, "PopPlLat": 34.0922335, "PopPlLong": -117.435048, "ELEV_IN_M": 377.0, "ELEV_IN_FT": 1237.0 }, "geometry": { "type": "Point", "coordinates": [ -117.435047999999881, 34.092233500000077 ] } },
{ "type": "Feature", "properties": { "GNIS_ID": 1652764.0, "ANSICODE": "2411323", "FEATURE": "Civil", "FEATURE2": "-999", "NAME": "Ontario", "POP_2010": 163924.0, "COUNTY": "San Bernardino", "COUNTYFIPS": "071", "STATE": "CA", "STATE_FIPS": "06", "LATITUDE": 34.0633443, "LONGITUDE": -117.6508876, "PopPlLat": 34.0633443, "PopPlLong": -117.6508876, "ELEV_IN_M": 306.0, "ELEV_IN_FT": 1004.0 }, "geometry": { "type": "Point", "coordinates": [ -117.650887599999919, 34.06334430000004 ] } },
{ "type": "Feature", "properties": { "GNIS_ID": 1667908.0, "ANSICODE": "2411514", "FEATURE": "Civil", "FEATURE2": "-999", "NAME": "Rancho Cucamonga", "POP_2010": 165269.0, "COUNTY": "San Bernardino", "COUNTYFIPS": "071", "STATE": "CA", "STATE_FIPS": "06", "LATITUDE": 34.1063989, "LONGITUDE": -117.5931084, "PopPlLat": 34.1063989, "PopPlLong": -117.5931084, "ELEV_IN_M": 368.0, "ELEV_IN_FT": 1207.0 }, "geometry": { "type": "Point", "coordinates": [ -117.593108399999949, 34.106398900000102 ] } },
{ "type": "Feature", "properties": { "GNIS_ID": 1652766.0, "ANSICODE": "2411347", "FEATURE": "Civil", "FEATURE2": "-999", "NAME": "Oxnard", "POP_2010": 197899.0, "COUNTY": "Ventura", "COUNTYFIPS": "111", "STATE": "CA", "STATE_FIPS": "06", "LATITUDE": 34.1975048, "LONGITUDE": -119.1770516, "PopPlLat": 34.1975048, "PopPlLong": -119.1770516, "ELEV_IN_M": 16.0, "ELEV_IN_FT": 52.0 }, "geometry": { "type": "Point", "coordinates": [ -119.1770516, 34.197504800000104 ] } },
{ "type": "Feature", "properties": { "GNIS_ID": 1660679.0, "ANSICODE": "2410597", "FEATURE": "Civil", "FEATURE2": "-999", "NAME": "Glendale", "POP_2010": 191719.0, "COUNTY": "Los Angeles", "COUNTYFIPS": "037", "STATE": "CA", "STATE_FIPS": "06", "LATITUDE": 34.1425078, "LONGITUDE": -118.255075, "PopPlLat": 34.1425078, "PopPlLong": -118.255075, "ELEV_IN_M": 159.0, "ELEV_IN_FT": 522.0 }, "geometry": { "type": "Point", "coordinates": [ -118.255075, 34.142507800000089 ] } },
{ "type": "Feature", "properties": { "GNIS_ID": 1652747.0, "ANSICODE": "2410866", "FEATURE": "Civil", "FEATURE2": "-999", "NAME": "Long Beach", "POP_2010": 462257.0, "COUNTY": "Los Angeles", "COUNTYFIPS": "037", "STATE": "CA", "STATE_FIPS": "06", "LATITUDE": 33.7669623, "LONGITUDE": -118.1892348, "PopPlLat": 33.7669623, "PopPlLong": -118.1892348, "ELEV_IN_M": 9.0, "ELEV_IN_FT": 30.0 }, "geometry": { "type": "Point", "coordinates": [ -118.189234799999952, 33.766962300000046 ] } },
{ "type": "Feature", "properties": { "GNIS_ID": 1662328.0, "ANSICODE": "2410877", "FEATURE": "Civil", "FEATURE2": "County Seat", "NAME": "Los Angeles", "POP_2010": 3792621.0, "COUNTY": "Los Angeles", "COUNTYFIPS": "037", "STATE": "CA", "STATE_FIPS": "06", "LATITUDE": 34.0522342, "LONGITUDE": -118.2436849, "PopPlLat": 34.0522342, "PopPlLong": -118.2436849, "ELEV_IN_M": 89.0, "ELEV_IN_FT": 292.0 }, "geometry": { "type": "Point", "coordinates": [ -118.243684899999948, 34.052234200000044 ] } },
{ "type": "Feature", "properties": { "GNIS_ID": 1652769.0, "ANSICODE": "2411359", "FEATURE": "Civil", "FEATURE2": "-999", "NAME": "Palmdale", "POP_2010": 152750.0, "COUNTY": "Los Angeles", "COUNTYFIPS": "037", "STATE": "CA", "STATE_FIPS": "06", "LATITUDE": 34.5794343, "LONGITUDE": -118.1164613, "PopPlLat": 34.5794343, "PopPlLong": -118.1164613, "ELEV_IN_M": 810.0, "ELEV_IN_FT": 2657.0 }, "geometry": { "type": "Point", "coordinates": [ -118.116461299999969, 34.579434300000059 ] } },
{ "type": "Feature", "properties": { "GNIS_ID": 1652741.0, "ANSICODE": "2411620", "FEATURE": "Civil", "FEATURE2": "-999", "NAME": "Lancaster", "POP_2010": 156633.0, "COUNTY": "Los Angeles", "COUNTYFIPS": "037", "STATE": "CA", "STATE_FIPS": "06", "LATITUDE": 34.6980406, "LONGITUDE": -118.1367393, "PopPlLat": 34.6980406, "PopPlLong": -118.1367393, "ELEV_IN_M": 719.0, "ELEV_IN_FT": 2359.0 }, "geometry": { "type": "Point", "coordinates": [ -118.136739299999988, 34.69804060000007 ] } },
{ "type": "Feature", "properties": { "GNIS_ID": 1661315.0, "ANSICODE": "2410965", "FEATURE": "Civil", "FEATURE2": "County Seat", "NAME": "Riverside", "POP_2010": 303871.0, "COUNTY": "Riverside", "COUNTYFIPS": "065", "STATE": "CA", "STATE_FIPS": "06", "LATITUDE": 33.9533487, "LONGITUDE": -117.3961564, "PopPlLat": 33.9533487, "PopPlLong": -117.3961564, "ELEV_IN_M": 252.0, "ELEV_IN_FT": 827.0 }, "geometry": { "type": "Point", "coordinates": [ -117.396156399999938, 33.953348700000106 ] } },
{ "type": "Feature", "properties": { "GNIS_ID": 1668251.0, "ANSICODE": "2411159", "FEATURE": "Civil", "FEATURE2": "-999", "NAME": "Moreno Valley", "POP_2010": 193365.0, "COUNTY": "Riverside", "COUNTYFIPS": "065", "STATE": "CA", "STATE_FIPS": "06", "LATITUDE": 33.937517, "LONGITUDE": -117.2305944, "PopPlLat": 33.937517, "PopPlLong": -117.2305944, "ELEV_IN_M": 497.0, "ELEV_IN_FT": 1631.0 }, "geometry": { "type": "Point", "coordinates": [ -117.230594399999916, 33.937517 ] } },
{ "type": "Feature", "properties": { "GNIS_ID": 1660662.0, "ANSICODE": "2410568", "FEATURE": "Civil", "FEATURE2": "-999", "NAME": "Garden Grove", "POP_2010": 170883.0, "COUNTY": "Orange", "COUNTYFIPS": "059", "STATE": "CA", "STATE_FIPS": "06", "LATITUDE": 33.7739053, "LONGITUDE": -117.9414477, "PopPlLat": 33.7739053, "PopPlLong": -117.9414477, "ELEV_IN_M": 27.0, "ELEV_IN_FT": 89.0 }, "geometry": { "type": "Point", "coordinates": [ -117.941447699999969, 33.773905300000081 ] } },
{ "type": "Feature", "properties": { "GNIS_ID": 1652724.0, "ANSICODE": "2410811", "FEATURE": "Civil", "FEATURE2": "-999", "NAME": "Huntington Beach", "POP_2010": 189992.0, "COUNTY": "Orange", "COUNTYFIPS": "059", "STATE": "CA", "STATE_FIPS": "06", "LATITUDE": 33.660297, "LONGITUDE": -117.9992265, "PopPlLat": 33.660297, "PopPlLong": -117.9992265, "ELEV_IN_M": 12.0, "ELEV_IN_FT": 39.0 }, "geometry": { "type": "Point", "coordinates": [ -117.999226499999963, 33.660297000000185 ] } },
{ "type": "Feature", "properties": { "GNIS_ID": 1652761.0, "ANSICODE": "2411301", "FEATURE": "Civil", "FEATURE2": "-999", "NAME": "Oceanside", "POP_2010": 167086.0, "COUNTY": "San Diego", "COUNTYFIPS": "073", "STATE": "CA", "STATE_FIPS": "06", "LATITUDE": 33.1958696, "LONGITUDE": -117.3794834, "PopPlLat": 33.1958696, "PopPlLong": -117.3794834, "ELEV_IN_M": 20.0, "ELEV_IN_FT": 66.0 }, "geometry": { "type": "Point", "coordinates": [ -117.379483399999913, 33.195869600000151 ] } },
{ "type": "Feature", "properties": { "GNIS_ID": 1659601.0, "ANSICODE": "2411827", "FEATURE": "Civil", "FEATURE2": "County Seat", "NAME": "Santa Rosa", "POP_2010": 167815.0, "COUNTY": "Sonoma", "COUNTYFIPS": "097", "STATE": "CA", "STATE_FIPS": "06", "LATITUDE": 38.4404675, "LONGITUDE": -122.7144314, "PopPlLat": 38.4404675, "PopPlLong": -122.7144314, "ELEV_IN_M": 50.0, "ELEV_IN_FT": 164.0 }, "geometry": { "type": "Point", "coordinates": [ -122.714431399999967, 38.440467500000125 ] } },
{ "type": "Feature", "properties": { "GNIS_ID": 1659564.0, "ANSICODE": "2411751", "FEATURE": "Civil", "FEATURE2": "State Capital County Seat", "NAME": "Sacramento", "POP_2010": 466488.0, "COUNTY": "Sacramento", "COUNTYFIPS": "067", "STATE": "CA", "STATE_FIPS": "06", "LATITUDE": 38.5815719, "LONGITUDE": -121.4943996, "PopPlLat": 38.5815719, "PopPlLong": -121.4943996, "ELEV_IN_M": 9.0, "ELEV_IN_FT": 30.0 }, "geometry": { "type": "Point", "coordinates": [ -121.494399599999952, 38.581571900000085 ] } },
{ "type": "Feature", "properties": { "GNIS_ID": 1659872.0, "ANSICODE": "2411987", "FEATURE": "Civil", "FEATURE2": "County Seat", "NAME": "Stockton", "POP_2010": 291707.0, "COUNTY": "San Joaquin", "COUNTYFIPS": "077", "STATE": "CA", "STATE_FIPS": "06", "LATITUDE": 37.9577016, "LONGITUDE": -121.2907796, "PopPlLat": 37.9577016, "PopPlLong": -121.2907796, "ELEV_IN_M": 4.0, "ELEV_IN_FT": 13.0 }, "geometry": { "type": "Point", "coordinates": [ -121.290779599999951, 37.957701600000121 ] } },
{ "type": "Feature", "properties": { "GNIS_ID": 277593.0, "ANSICODE": "2411786", "FEATURE": "Civil", "FEATURE2": "County Seat", "NAME": "San Francisco", "POP_2010": 805235.0, "COUNTY": "San Francisco", "COUNTYFIPS": "075", "STATE": "CA", "STATE_FIPS": "06", "LATITUDE": 37.7749295, "LONGITUDE": -122.4194155, "PopPlLat": 37.7749295, "PopPlLong": -122.4194155, "ELEV_IN_M": 16.0, "ELEV_IN_FT": 52.0 }, "geometry": { "type": "Point", "coordinates": [ -122.419415499999957, 37.774929500000155 ] } },
{ "type": "Feature", "properties": { "GNIS_ID": 1654952.0, "ANSICODE": "2411790", "FEATURE": "Civil", "FEATURE2": "County Seat", "NAME": "San Jose", "POP_2010": 945942.0, "COUNTY": "Santa Clara", "COUNTYFIPS": "085", "STATE": "CA", "STATE_FIPS": "06", "LATITUDE": 37.3393857, "LONGITUDE": -121.8949555, "PopPlLat": 37.3393857, "PopPlLong": -121.8949555, "ELEV_IN_M": 25.0, "ELEV_IN_FT": 82.0 }, "geometry": { "type": "Point", "coordinates": [ -121.8949555, 37.339385700000037 ] } },
{ "type": "Feature", "properties": { "GNIS_ID": 277589.0, "ANSICODE": "2411768", "FEATURE": "Civil", "FEATURE2": "County Seat", "NAME": "Salinas", "POP_2010": 150441.0, "COUNTY": "Monterey", "COUNTYFIPS": "053", "STATE": "CA", "STATE_FIPS": "06", "LATITUDE": 36.6777372, "LONGITUDE": -121.6555013, "PopPlLat": 36.6777372, "PopPlLong": -121.6555013, "ELEV_IN_M": 16.0, "ELEV_IN_FT": 52.0 }, "geometry": { "type": "Point", "coordinates": [ -121.655501299999912, 36.677737200000024 ] } },
{ "type": "Feature", "properties": { "GNIS_ID": 1661375.0, "ANSICODE": "2411777", "FEATURE": "Civil", "FEATURE2": "County Seat", "NAME": "San Bernardino", "POP_2010": 209924.0, "COUNTY": "San Bernardino", "COUNTYFIPS": "071", "STATE": "CA", "STATE_FIPS": "06", "LATITUDE": 34.1083449, "LONGITUDE": -117.2897652, "PopPlLat": 34.1083449, "PopPlLong": -117.2897652, "ELEV_IN_M": 321.0, "ELEV_IN_FT": 1053.0 }, "geometry": { "type": "Point", "coordinates": [ -117.2897652, 34.108344900000191 ] } },
{ "type": "Feature", "properties": { "GNIS_ID": 1662338.0, "ANSICODE": "2411819", "FEATURE": "Civil", "FEATURE2": "-999", "NAME": "Santa Clarita", "POP_2010": 176320.0, "COUNTY": "Los Angeles", "COUNTYFIPS": "037", "STATE": "CA", "STATE_FIPS": "06", "LATITUDE": 34.3916641, "LONGITUDE": -118.542586, "PopPlLat": 34.3916641, "PopPlLong": -118.542586, "ELEV_IN_M": 368.0, "ELEV_IN_FT": 1207.0 }, "geometry": { "type": "Point", "coordinates": [ -118.542586, 34.391664100000071 ] } },
{ "type": "Feature", "properties": { "GNIS_ID": 1652790.0, "ANSICODE": "2411814", "FEATURE": "Civil", "FEATURE2": "County Seat", "NAME": "Santa Ana", "POP_2010": 324528.0, "COUNTY": "Orange", "COUNTYFIPS": "059", "STATE": "CA", "STATE_FIPS": "06", "LATITUDE": 33.7455731, "LONGITUDE": -117.8678338, "PopPlLat": 33.7455731, "PopPlLong": -117.8678338, "ELEV_IN_M": 35.0, "ELEV_IN_FT": 115.0 }, "geometry": { "type": "Point", "coordinates": [ -117.867833799999971, 33.745573100000115 ] } },
{ "type": "Feature", "properties": { "GNIS_ID": 1661377.0, "ANSICODE": "2411782", "FEATURE": "Civil", "FEATURE2": "County Seat", "NAME": "San Diego", "POP_2010": 1307402.0, "COUNTY": "San Diego", "COUNTYFIPS": "073", "STATE": "CA", "STATE_FIPS": "06", "LATITUDE": 32.7153292, "LONGITUDE": -117.1572551, "PopPlLat": 32.7153292, "PopPlLong": -117.1572551, "ELEV_IN_M": 19.0, "ELEV_IN_FT": 62.0 }, "geometry": { "type": "Point", "coordinates": [ -117.157255099999929, 32.715329200000099 ] } }
]
}
